,Unnamed: 0,BUSINESS ACCT#,DBA NAME,OWNERSHIP TYPE,ACTIVITY DESC,lon,lat
0,0,2019005727,#WHO DO U THINK U ARE,SOLE,information services,-117.07373999999999,32.704464
1,1,2010034224,% NATURAL GOMEZ,SOLE,HEALTH SERVICES,-117.10183,32.737766
2,2,2007016185,+A PARTNERS,CORP,PROPERTY SERVICES,-117.14946,32.749218
3,3,2016012911,1 ALL EYES AND EARS,SOLE,other individual & family services,-117.08980600000001,32.73843
4,4,2013047218,1 AMERICAN LIVESCAN,CORP,investigation services,-117.11652,32.809334
5,5,1995012233,1 CLASSY CAB,LLC,all other transit & ground passenger trans,-117.04206,32.70174
6,6,2018026530,1 LIFE QUOTE INSURANCE & FINANCIAL SERVICES,SOLE,INSURANCE,-117.214676,32.754191999999996
7,7,2016024132,1 LINE OF SIGHT,SOLE,consulting services,-117.236534,32.962055
8,8,2017000305,1 LOOK BACK,H-W,ART AND PHOTOGRAPHY,-117.08514,32.93103
9,9,1998011168,1 SPIRIT,CORP,WHOLESALE,-117.23208000000001,32.937702
10,10,2005006098,1 STOP POOL PROS 5,CORP,CONSTRUCTION,-117.15186000000001,32.89089
11,11,1996000394,1# LIVINGSTONS CHICKEN KITCHEN,CORP,FOOD SERVICES,-117.25149499999999,32.747128000000004
13,13,2003009618,1-800-GOTJUNK OF SAN DIEGO,LLC,TRANSPORTATION,-117.27828000000001,33.119675
14,14,2003024754,1/8 FRESH,SOLE,other personal services,-117.177765,32.965237
16,16,2012005140,100% SPEEDLAB LLC,LLC,WHOLESALE,-117.12073999999998,32.80834
17,17,2017020342,102 HUB,SCORP,BARS,-117.17331000000001,32.90721
18,18,2011001615,1069 DESIGN,SOLE,graphic design services,-117.18806000000001,33.1004
19,19,2019006352,10X DIGITAL FIRM,LLC,marketing consulting services,-117.15446499999999,32.779340000000005
20,20,2016017112,1155 ISLAND AVENUE LLC,LLC,PROPERTY SERVICES,-117.16022,32.722115
21,21,2016000699,123 WINDOW SCREEN REPAIR,SOLE,other services to buildings & dwellings,-117.04768,32.775448
22,22,1974001809,12TH & BROADWAY CAFE,SOLE,FOOD SERVICES,-117.15378,32.715652
23,23,2006014483,13TH CENTURY HEAVY INDUSTRIES ,SOLE,consulting services,-117.1452,32.921783000000005
24,24,2007021055,145TH ST,PARTNR,ART AND PHOTOGRAPHY,-117.1457,32.792774
25,25,2011003863,1750 FIFTH AVE LLC,LLC,PROPERTY SERVICES,-117.161026,32.728245
26,26,2018022636,1787 1789 AUTO DETAIL,SOLE,REPAIR SERVICES,-117.17218000000001,32.790104
27,27,1995000745,1800 PAINT JOB OF SAN DIEGO,CORP,CONSTRUCTION,-117.06436000000001,33.028843
28,28,2018028183,1800LOVEMYCATS,SOLE,RETAILERS,-117.071785,32.994263000000004
29,29,2012011995,1805 GALLERY,SOLE,RETAILERS,-117.16755,32.723907000000004
30,30,2018023618,1818 BERNARDO LLC,LLC,PROPERTY SERVICES,-117.076004,33.020309999999995
31,31,2018022899,1904BLENDS,SOLE,beauty salons,-117.21596000000001,32.752632
32,32,2006014546,1933 NORTH PLACENTIA AVENUE LLC,LLC,PROPERTY SERVICES,-117.00684,32.809013
33,33,2006014554,1941 NORTH PLACENTIA AVENUE LLC,LLC,PROPERTY SERVICES,-117.00684,32.809013
34,34,2003007783,1B7,NO/PRF,NON-PROFIT,-117.03733999999999,33.13179
35,35,2016001350,1CALL4CARE LLC,LLC,consulting services,-117.1458,32.827282000000004
36,36,2018002295,1HENRY,SOLE,other services to buildings & dwellings,-117.243126,33.208861999999996
37,37,2013056659,1HRTIMEOUT,SOLE,MASSAGE,-117.14889,32.782463
38,38,2018023501,1REALTOUR LLC,LLC,COMPUTERS,-117.07302,32.762640000000005
39,39,2014029035,1ST A WHEELS,SOLE,RETAILERS,-116.99905,32.57202
40,40,2015020842,1ST CHOICE PLUMBING,CORP,CONSTRUCTION,-117.29326999999999,33.204685
41,41,2017016776,1ST CHOICE SOLAR CONSTRUCTION,SOLE,"building, developing & general contracting",-117.883385,33.805637
42,42,1998007323,1ST CLASS AUTO DETAIL,SOLE,AUTOMOTIVE,-117.211426,32.88098
43,43,2018004556,1ST LIGHT ENERGY INC,CORP,CONSTRUCTION,-121.20257600000001,37.78745
44,44,2017015427,1ST TEAM AIR CONDITIONING INC,CORP,CONSTRUCTION,-117.17908500000001,33.534702
45,45,2001001308,2 CONNECT,SCORP,management consulting services,-117.18621999999999,32.855292999999996
46,46,2016005599,2 JV HANDYMAN,SOLE,other services to buildings & dwellings,-117.04267,32.769653000000005
47,47,2019005944,2 LITTY-9/3 CBD,SOLE,RETAILERS,-117.05551000000001,32.729588
48,48,2006008633,2 MUCH FOOD,SCORP,electronic shopping & mail-order houses,-117.14617,33.01576
49,49,2013056536,2-D STAGE LIGHTING ELECTRIC INC,CORP,CONSTRUCTION,-117.087425,32.593486999999996
50,50,2015031359,20 CAPITAL800,LLC,FINANCE SERVICES,-117.14627,32.761654
51,51,2015022715,20/20 PLUMBING & HEATING INC,SCORP,CONSTRUCTION,-117.456245,33.960803999999996
52,52,1994008090,2000 DREAMS BRIDAL INC,CORP,CLOTHING,-117.15489,32.818000000000005
53,53,2019008888,2020DRAINGUYS,SOLE,other services to buildings & dwellings,-117.09493,32.945705
54,54,2006014600,2101 ADAMS LLC,LLC,PROPERTY SERVICES,-117.14241000000001,32.762768
55,55,2018020204,21K JEWELERS,LLC,RETAILERS,-117.13515,32.760529999999996
56,56,2007000179,220 GROUP LLC,LLC,COMPUTERS,-117.21390500000001,32.748886
57,57,2017017001,227 INFOSEC INC,SCORP,consulting services,-117.07406,33.012882
58,58,2011000860,24 HOUR ELEVATOR INC,CORP,CONSTRUCTION,-117.14883400000001,32.829792
59,59,2012025799,24 HOUR EMERGENCY GLASS,SOLE,all other personal services,-117.07204399999999,32.76572
60,60,2018022668,24 HOUR FITNESS,CORP,FITNESS SERVICES,-117.00813000000001,32.802902
61,61,1980469993,24 HOUR FITNESS #109,CORP,FITNESS SERVICES,-117.1106,32.781867999999996
62,62,1985009545,24 HOUR FITNESS #94,CORP,personal care services,-117.12166,32.893803000000005
63,63,2000004486,24 HOUR FITNESS INC,CORP,FITNESS SERVICES,-117.253395,32.79702
64,64,1991000106,24 HOUR FITNESS INC #103,CORP,FITNESS SERVICES,-117.21623999999998,32.752804
65,65,1998006956,24 HOURS PLUMBING,SOLE,janitorial services,-117.0591,32.742252
66,66,2004015547,24 HRS OCEAN BEACH TATTOO & BODY PIERRING,SOLE,tattoo parlors,-117.22774,32.7263
67,67,2012031177,24-7 MOVING & STORAGE INC,CORP,used household & office goods moving,-117.14671000000001,32.774277000000005
68,68,2017007937,24/7 PACIFIC SUPERVISED VISITATION SERVICES LLC,LLC,individual & family services,-117.04553,32.552723
69,69,2010022227,24/7 TRUCKING INC,CORP,other business services,-117.05515,32.704796
70,70,2007027363,247 COMPUTER SOLUTIONS,SOLE,COMPUTERS,-117.07339499999999,32.581309999999995
71,71,2004008754,2505 CONGRESS INC,CORP,CONSTRUCTION,-117.19571,32.75203
72,72,2008001602,25TH STREET FAMILY MEDICINE,NO/PRF,NON-PROFIT,-116.472824,32.63009
73,73,2005011793,2719 INC,CORP,PROPERTY SERVICES,-117.21582,32.752544
74,74,2007024210,2C COMMUNICATIONS,SOLE,ART AND PHOTOGRAPHY,-117.2324,32.955593
75,75,2019002331,2DI4 JEWELRY,SOLE,RETAILERS,-117.12886,32.71692
76,76,1999002376,2EARN,SOLE,COMPUTERS,-117.1399,32.908409999999996
77,77,2018011537,2J ANTENNAS USA CORPORATION,CORP,WHOLESALE,-117.19733400000001,32.904144
78,78,2013041987,2KIDS BREWING COMPANY,H-W,breweries,-117.137825,32.895878
80,80,2012055900,2SYNERGIZE INC,CORP,marketing consulting services,-117.06438,33.043114
81,81,2017008561,3 AMIGOS RECYCLING,SOLE,materials recovery facilities,-117.02582,32.71758
82,82,2018009996,3 DAY BLINDS LLC,LLC,RETAILERS,-117.7516,33.668766
83,83,2014024395,3 IN 1 BATHTUB AND KITCHEN REFINISHING INC,SCORP,CONSTRUCTION,-117.06618999999999,32.603027000000004
84,84,2018020689,3 J'S SWEET TREATS,SOLE,FOOD SERVICES,-117.075905,32.7254
85,85,2016016937,3 JEL HOLDINGS LLC,LLC,PROPERTY SERVICES,-117.10771000000001,32.936671999999994
86,86,2018015410,3 LADYBIRDS ART,SOLE,ART AND PHOTOGRAPHY,-117.094154,32.761559999999996
87,87,1989005369,3 VOLT ELECTRIC,SOLE,CONSTRUCTION,-117.10223,33.16062
88,88,2018004789,3-D DOOR INC,CORP,CONSTRUCTION,-117.92686499999999,33.712013
89,89,1994008349,3-D ENTERPRISES,CORP,CONSTRUCTION,-117.151276,32.809036
90,90,2018021131,30NP LLC,LLC,PROPERTY SERVICES,-117.15446000000001,32.80707
91,91,2012067180,32 DENTAL ARTS,SOLE,offices of dentists,-117.06783999999999,32.987423
92,92,2014017421,32 NORTH BREWING CO,LLC,breweries,-117.16585500000001,32.882690000000004
93,93,2016017092,3366 5TH AVENUE LLC,LLC,PROPERTY SERVICES,-117.23435,32.71817
94,94,2014021731,35 PACES PRODUCTIONS,SOLE,ART AND PHOTOGRAPHY,-117.13678999999999,32.745026
95,95,2016023395,360  HOME  INSPECTION,SOLE,PROPERTY SERVICES,-117.15819499999999,32.918766
96,96,2016024566,360 BUSINESS PRODUCTS,SCORP,FURNITURE,-117.14751399999999,32.89262
97,97,2018020765,360CCS/ 360 CONSTRUCTION CLEANING SERVICES,SOLE,other services to buildings & dwellings,-117.0789,32.72452
98,98,2008009647,3630 BAYSIDE LLC,LLC,PROPERTY SERVICES,-117.18040500000001,32.746708
99,99,2009035271,365 POOL SERVICES,SOLE,CLEANING SERVICES,-117.140755,32.93428
100,100,2008023803,3767 VOLTAIRE LLC,LLC,PROPERTY SERVICES,-117.22173000000001,32.735890000000005
101,101,2011027310,3777 RUFFIN ROAD LLC,LLC,PROPERTY SERVICES,-117.12088999999999,32.813377
102,102,2007016213,3855 RUFFIN ROAD LLC,LLC,PROPERTY SERVICES,-117.12088999999999,32.813377
103,103,2016000286,3920 CONDE STREET LLC,LLC,PROPERTY SERVICES,-117.195175,32.750828000000006
104,104,1993002034,3A'S MAINTENANCE,SOLE,janitorial services,-117.17016000000001,32.771809999999995
106,106,2018021765,3D DELIVERY,SOLE,local messengers & local delivery,-117.06921000000001,32.74713
107,107,2004004889,3D ENVIRONMENTAL INC,SCORP,CONSTRUCTION,-117.06156999999999,32.75374
108,108,2015051191,3D FLEX FLASH,SOLE,RETAILERS,-117.13677,32.96537
109,109,2011011092,3D PHARMACEUTICAL CONSULTANTS INC,CORP,consulting services,-117.218185,32.959590000000006
110,110,2014016350,3DT HOLDINGS LLC,LLC,SCIENCE,-117.22996499999999,32.905094
111,111,2004011871,3DYN LLC,LLC,AUTOMOTIVE,-117.15256000000001,32.8909
112,112,2019007832,3LX INSURANCE AGENCY,LLC,INSURANCE,-117.18799999999999,32.834472999999996
113,113,1987014161,3RD GENERATION EMBROIDERY INC,CORP,SCIENCE,-117.14587,32.830906
114,114,2019000233,3V TRANSPORT LLC,LLC,TRANSPORTATION,-116.9798,32.559143
115,115,2006003927,4 CHRIST MISSION,CORP,religious organizations,-117.07005,32.98748
116,116,2015039381,4 LEAF FITNESS,SOLE,FITNESS SERVICES,-117.09622,32.777798
117,117,2010004673,4 LIBERTY INC,SCORP,consulting services,-117.13901000000001,32.809723
118,118,2008010835,4 SEASON MARKET,CORP,BARS,-117.08549,32.75697
119,119,2014014763,4-PAW TREATS INC,CORP,WHOLESALE,-117.09203000000001,32.611340000000006
120,120,2019004861,40 N PHO & GRILLE,LLC,FOOD SERVICES,-117.09868,32.90338
121,121,2008023476,4081 ARIZONA STREET LLC,LLC,PROPERTY SERVICES,-117.167625,32.738953
122,122,2008023478,4084 IOWA STREET LLC,LLC,PROPERTY SERVICES,-117.167625,32.738953
123,123,2018002119,41 ORANGE LLC,LLC,advertising & related services,-117.19135,32.75035
124,124,2007014990,411 14TH STREET INC,SCORP,business support services,-117.24066,32.948536
125,125,2003003979,428 DESIGNS,CORP,all other information services,-117.11377,32.768856
126,126,1994008473,42ND STREET PRODUCTIONS,SOLE,SCIENCE,-117.105,32.757713
127,127,2008010093,4311 LLC,LLC,EDUCATION,-117.209625,32.841324
128,128,2004015514,4325 OCEAN BOULEVARD LLC ,LLC,PROPERTY SERVICES,-117.244804,32.71137
129,129,2018018600,43RD WASH AND WAX,SOLE,mobile detailing,-117.10238000000001,32.69477
130,130,2013067769,4444 MEDIA,SOLE,ART AND PHOTOGRAPHY,-117.06608999999999,32.749466
131,131,2012014917,446 26TH STREET HOLDINGS LLC,LLC,PROPERTY SERVICES,-117.138145,32.709972
132,132,2003022956,45 GRAPHICS,SOLE,RETAILERS,-117.09358999999999,32.736286
133,133,2014025084,4797 RUFFNER STREET LLC,LLC,PROPERTY SERVICES,-117.158424,32.828827000000004
134,134,2007023720,48 HOUR INSPECTION AND APPRAISAL,SOLE,PROPERTY SERVICES,-117.11703500000002,32.938934
135,135,2007018487,4891 PCH LLC,LLC,PROPERTY SERVICES,-117.203445,32.762383
136,136,2016019583,49 SEO SERVICES,H-W,other services related to advertising,-117.22883999999999,32.84724
137,137,1998011187,4990 VIEWRIDGE LLC,CORP,PROPERTY SERVICES,-117.12148,32.82694
138,138,2001003802,4DSTUDIO,SOLE,COMPUTERS,-117.09901,33.096306
139,139,2019005360,4KIDS JUMPERS,PARTNR,PROPERTY SERVICES,-117.08506000000001,32.647495
141,141,2019000385,4M WORLD BROKERS INC,CORP,TRANSPORTATION,-116.94405,32.551765
142,142,2006004797,4S RANCH GASOLINE & CAR WASH,LP,RETAILERS,-117.11186000000001,33.015327
143,143,2008009300,4S RANCH HANDYMAN,SOLE,REPAIR SERVICES,-117.13148500000001,33.018024
144,144,2014040135,4S TINT/ MIRAMAR CAR AUDIO,H-W,AUTOMOTIVE,-117.16628,32.87849
146,146,2019004230,4SUNRISE,SOLE,consulting services,-117.11828,32.890392
147,147,2007015082,4TH AVE PARTNERS LLC,LLC,SCIENCE,-117.16157,32.743015
148,148,2009001176,4TH AVENUE BUILDING LLC,LLC,PROPERTY SERVICES,-117.224106,32.845695
149,149,2018017892,4TH STREET PRODUCTIONS,SOLE,ART AND PHOTOGRAPHY,-118.1804,33.800762
150,150,2015020065,4U ONLY ,CORP,CLOTHING,-117.10219,32.749629999999996
151,151,2005010555,5 & A DIME SAN DIEGO,SCORP,RETAILERS,-117.15711999999999,32.712593
152,152,2016011909,5 COUSINS,SOLE,other direct selling establishments,-117.05936399999999,32.756496000000006
153,153,1990008467,5 DAY REMODEL INC,CORP,all other business support services,-117.1546,32.834740000000004
154,154,2013002340,5 ELEMENT FITNESS,SOLE,FITNESS SERVICES,-117.16703000000001,32.8226
156,156,2003016575,5 POINT AUTO DETAIL AND 5 POINT MOBILE AUTO DETAIL,CORP,other personal services,-117.13423,32.838417
157,157,2017000258,5 STAR MOBILE DETAILING SMART DETAILING MOBILE,SOLE,mobile detailing,-116.91452,32.864002
158,158,2018016585,5 STARS KITCHEN AND BATH ,SOLE,"building, developing & general contracting",-117.05089,32.768634999999996
159,159,2015033132,5-STAR NAILS,SOLE,nail salons,-117.24694,32.79844
160,160,2014012682,50 NORTH YACHTS,LLC,boat dealers,-117.224304,32.71861
161,161,2007026517,5037 NEWPORT AVENUE LLC,LLC,PROPERTY SERVICES,-117.23533,32.718395
162,162,2011005086,505 LIVING,SOLE,EDUCATION,-117.22907,32.946670000000005
163,163,2018004936,55 THAI KITCHEN,LLC,FOOD SERVICES,-117.06995,32.772083
164,164,2012044294,56143: BUSINESS SERVICE CENTERS,CORP,oth business service centers (incl copy shops,-117.21991000000001,32.73553
165,165,2008023479,5801 NORHT SHARON AMITY ROAD LLC,LLC,PROPERTY SERVICES,-117.167625,32.738953
166,166,2019001123,5STAR AUTOMOTIVE,SOLE,mobile detailing,-117.13228000000001,32.711647
167,167,1999003410,5TH AVE CAB,SOLE,all other transit & ground passenger trans,-117.08358999999999,32.7596
168,168,2017007050,5TH AVENUE YACHTS,SOLE,boat dealers,-117.21673999999999,32.73431
169,169,2017019824,6 4 3 SPORTS,SOLE,all other personal services,-117.147995,32.929424
170,170,2018024926,6 8 PRODUCTIONS,SOLE,ART AND PHOTOGRAPHY,-117.12711999999999,32.73802
171,171,2006016398,600 FRONT APARTMENTS,PARTNR,PROPERTY SERVICES,-116.97673,32.78933
172,172,2017006925,619 CHAMPIONSHIP LLC,LLC,other personal care services,-117.17331000000001,32.90721
173,173,2018001554,619 DANCERS,SOLE,EDUCATION,-117.07153000000001,32.562884999999994
174,174,2014023201,619 MUSCLE INC,SCORP,FOOD SUPPLIER,-117.217514,32.80638
175,175,2015040225,619 PHOTOGRAPHY,SOLE,ART AND PHOTOGRAPHY,-117.06858999999999,32.81129
176,176,2019002806,619 SD LANDSCAPE,H-W,landscaping services,-117.090965,32.69681
177,177,2016018028,641 COMMUNICATIONS INC,CORP,COMPUTERS,-117.180824,32.969204
178,178,2017011529,664 TJ BIRRIERIA,SOLE,FOOD SERVICES,-117.08411000000001,32.584362
179,179,2018021093,664 TJ BIRRIERIA3,SOLE,FOOD SERVICES,-117.147705,32.70115
180,180,2018028199,67SIERRA CORP,SCORP,TRANSPORTATION,-117.13735,32.70213
181,181,2016016477,7 CROWNS SECURITY CONSULTANTS INC,CORP,investigation & security services,-117.112785,32.960846000000004
182,182,2003012791,7 ELEVEN #13633E,H-W,RETAILERS,-117.06995,32.771834999999996
183,183,2001011394,7 ELEVEN #19663F,CORP,RETAILERS,-117.19323,32.7971
184,184,2012068003,7 ELEVEN #2111-13596A,CORP,RETAILERS,-117.23453,32.7992
185,185,2005011306,7 ELEVEN #33569A,SOLE,RETAILERS,-117.15966999999999,32.71676
186,186,2008033164,7 ELEVEN 13628,H-W,RETAILERS,-117.24741000000002,32.949482
187,187,2000000194,7 ELEVEN 15046,SOLE,RETAILERS,-117.18063000000001,32.816875
188,188,2019001213,7 ELEVEN 18710D,SOLE,RETAILERS,-117.16095,32.73872
189,189,2013066201,7 ELEVEN 2111 13659G,CORP,RETAILERS,-117.08346999999999,32.757248
190,190,2012082223,7 ELEVEN 2111 24133,CORP,RETAILERS,-117.24678999999999,32.751827
191,191,2012063760,7 ELEVEN 2111 35860A,CORP,RETAILERS,-117.163734,32.749912
192,192,2009016307,7 ELEVEN 25165,SOLE,RETAILERS,-117.140045,32.804512
193,193,1996008238,7 ELEVEN 29144,CORP,RETAILERS,-117.09118000000001,33.005565999999995
194,194,2009035135,7 ELEVEN 33542,CORP,RETAILERS,-117.13148999999999,32.831406
195,195,2009013720,7 ELEVEN 34235,H-W,RETAILERS,-117.20107,32.746517
196,196,2010003696,7 ELEVEN 34358,CORP,RETAILERS,-117.162,32.970154
197,197,2018028109,7 ELEVEN 36751B,CORP,RETAILERS,-117.10077,32.781815
198,198,1996006696,7 ELEVEN 39093,CORP,gasoline stations,-117.0929,32.58377
199,199,1992001591,7 ELEVEN 39198,SOLE,RETAILERS,-117.100975,32.738632
200,200,2013033732,7 ELEVEN @2131-29370D,CORP,RETAILERS,-117.07963000000001,32.57647
201,201,2012017421,7 ELEVEN STORE #39529,CORP,RETAILERS,-117.045456,32.803177000000005
202,202,2007008655,7 ELEVEN STORE 13650A 2111,SOLE,RETAILERS,-117.01417,32.800270000000005
203,203,2014034705,7 ELEVEN STORE 19987C,CORP,RETAILERS,-117.058975,32.745758
204,204,2015046322,7 ELEVEN STORE 2017E,CORP,RETAILERS,-117.10773,32.951584000000004
205,205,2015015255,7 ELEVEN STORE 20337,CORP,RETAILERS,-117.2188,32.8061
206,206,2013066191,7 ELEVEN STORE 2111 33100B,CORP,RETAILERS,-117.15476000000001,32.816486
207,207,2013066198,7 ELEVEN STORE 2112 36112A,CORP,RETAILERS,-117.090324,32.964355
208,208,2011034404,7 ELEVEN STORE 2131-34700,CORP,RETAILERS,-117.03406000000001,32.54768
209,209,2015046101,7 ELEVEN STORE 27263E,CORP,RETAILERS,-117.09769399999999,32.789856
210,210,2016004006,7 ELEVEN STORE 34274A,CORP,RETAILERS,-117.20403,32.790524
211,211,2013060487,7 STARS TEST ONLY,SOLE,AUTOMOTIVE,-117.15278,32.821766
212,212,2002001205,7 SUMMITS SPORTS INC,CORP,WHOLESALE,-117.22253400000001,32.944534000000004
213,213,1998002596,7-ELEVEN #2121-19628E,SOLE,RETAILERS,-117.129585,32.728115
214,214,2000008985,7-ELEVEN #2131-269100,SOLE,RETAILERS,-117.14391,32.75525
215,215,1999009605,7-ELEVEN #21790,SOLE,RETAILERS,-117.119606,32.763344000000004
216,216,1999008328,7-ELEVEN #32290A,H-W,RETAILERS,-116.96278000000001,32.56766
217,217,1999008864,7-ELEVEN #32708,CORP,BARS,-117.09016000000001,32.977505
218,218,2008019384,7-ELEVEN 13598,H-W,RETAILERS,-117.21741499999999,32.80376
219,219,2003003857,7-ELEVEN 16073C 2121,SOLE,RETAILERS,-117.12895,32.762553999999994
220,220,2008006723,7-ELEVEN 27659,SOLE,RETAILERS,-117.20783,32.75033
221,221,2018028312,7-ELEVEN 27664C,CORP,RETAILERS,-117.140755,32.7158
222,222,2001002822,7-ELEVEN 32131B,PARTNR,RETAILERS,-117.14452,32.905342
223,223,2008012749,7-ELEVEN 33694,SOLE,RETAILERS,-117.082504,32.790913
224,224,2009038565,7-ELEVEN 34243,CORP,RETAILERS,-117.20697,32.752559999999995
225,225,2005005983,7-ELEVEN 39060,SCORP,RETAILERS,-117.09908,32.8223
226,226,1978034555,7-ELEVEN FOOD STORE #20174T/2021,CORP,RETAILERS,-117.057106,32.767075
227,227,2005011625,7-ELEVEN INC STORE #32606C-2121,SOLE,RETAILERS,-117.12123999999999,32.80829
228,228,2005015463,7-ELEVEN STORE #13603,CORP,RETAILERS,-117.25431,32.805473
229,229,2003020359,7-ELEVEN STORE #20722B-2121,SOLE,RETAILERS,-117.08076000000001,32.805977
230,230,2000010703,7-ELEVEN STORE 13609A,SOLE,RETAILERS,-117.13978600000002,32.76095
231,231,2016005115,7-ELEVEN STORE 13613B,CORP,RETAILERS,-117.22856000000002,32.802498
232,232,2014021545,7-ELEVEN STORE 13623,CORP,RETAILERS,-117.24615,32.79861
233,233,2019004871,7-ELEVEN STORE 22872-D,SOLE,RETAILERS,-117.224525,32.730103
234,234,2003016605,7-ELEVEN STORE NO. 32940B-2121,CORP,RETAILERS,-117.15991000000001,32.71676
235,235,2000005136,7-ELEVEN STORES,SOLE,RETAILERS,-117.1559,32.793056
236,236,1997002702,7/24 BAIL BONDS,CORP,civic & social organizations,-117.08436999999999,33.014084000000004
237,237,2019006492,7/24 HOME CARE,SOLE,services for elderly & disabled persons,-117.0108,32.738735
238,238,2017007964,72 DEGREES PRINTING & APPAREL,SOLE,RETAILERS,-117.009224,32.80296
239,239,2019006171,724 CUSTODIAL CARE,SOLE,all other personal services,-117.05386000000001,32.767567
241,241,2003025371,7510 HAZARD LLC,LLC,PROPERTY SERVICES,-117.15668000000001,32.77089
242,242,2018016932,76 SAKURA ALLEY,SOLE,SPORTS,-117.11183999999999,32.752045
243,243,2007019450,760 LLC,LLC,PROPERTY SERVICES,-117.21735,32.895016
244,244,2014023685,7625 MESA COLLEGE DRIVE LLC,LLC,PROPERTY SERVICES,-117.15758500000001,32.800804
245,245,2009021903,777 NOODLE HOUSE,LLC,limited-service eating places,-117.09383999999999,32.749559999999995
246,246,2016011170,7980 MIRAMAR LLC,LLC,PROPERTY SERVICES,-117.14765,32.886959999999995
247,247,2016011280,7SHERPAS,LLC,all other personal services,-117.2255,32.860626
248,248,2011000540,802 6TH AVE LLC,LLC,FOOD SERVICES,-117.159874,32.71363
249,249,2016020088,828 EVENTS INC,CORP,PROPERTY SERVICES,-117.210434,32.7404
250,250,2014033715,83 PLUS PRODUCTIONS,SOLE,ART AND PHOTOGRAPHY,-117.169174,32.717896
251,251,2017012597,832 WOODWORKING,SOLE,MANUFACTURING,-117.06771,33.025420000000004
252,252,2007019703,8510-20 MIRALANI DRIVE LLC,LLC,PROPERTY SERVICES,-117.16272,32.708046
253,253,2015051328,860 GARNET OPERATIONS LLC,LLC,FOOD SERVICES,-117.25441000000001,32.796803000000004
254,254,2016003022,888 CLEANERS,SCORP,CLEANING SERVICES,-117.07779,32.980724
255,255,2016003010,888 CLEANERS,SCORP,CLEANING SERVICES,-117.09781000000001,32.7912
256,256,2017000540,8ANGLESTRENGTH,SOLE,FITNESS SERVICES,-117.21418999999999,32.866676
257,257,2018005017,9 MARTIAL ARTS AND WELLNESS,SOLE,ART AND PHOTOGRAPHY,-117.043144,32.672924
258,258,2006014389,9-1-1 & A-1 & LOCAL APPLIANCE REPAIR,H-W,REPAIR SERVICES,-117.10455,32.735424
259,259,2007018257,9025 BALBOA LLC,LLC,PROPERTY SERVICES,-117.13566000000002,32.821484000000005
260,260,2018024804,911 LANDSCAPING AND HANDYMAN,SOLE,landscaping services,-117.11433400000001,32.750183
261,261,2019002513,911 STUDIO SALON,SOLE,RETAILERS,-117.0001,32.645374
262,262,2006015376,9194 CHESAPEAKE DRIVE LLC,LLC,SCIENCE,-117.13055,32.83838
263,263,2015043862,92101 URBAN LIVING,CORP,PROPERTY SERVICES,-117.15971,32.717815
265,265,2018020299,933 WHOLESALE LLC,LLC,WHOLESALE,-117.03663,33.279263
266,266,2014027228,9411 ASSOCIATES LLC,LLC,PROPERTY SERVICES,-117.12326000000002,32.94804
267,267,2018005933,94TH AERO SQUADRON,CORP,FOOD SERVICES,-117.137726,32.820686
268,268,1999011877,99 CENT ONLY STORES #73,CORP,RETAILERS,-117.08696,32.671196
269,269,2001012343,99 CENTS ONLY STORES,CORP,RETAILERS,-117.20173999999999,32.830444
270,270,1999012600,99 CENTS ONLY STORES #99,CORP,RETAILERS,-117.03761999999999,32.550426
271,271,1995012170,99 RANCH MARKET,CORP,RETAILERS,-117.16046000000001,32.832676
272,272,2017011754,9FIVE,LLC,CLOTHING,-117.13006999999999,32.746838000000004
273,273,2016008396,9ROUND KEARNY MESA,LLC,SPORTS,-117.14903000000001,32.820267
274,274,2017014336,9ROUND KICKBOX FITNESS,LLC,FITNESS SERVICES,-117.15113000000001,32.711535999999995
275,275,2011000354,@ HOME PET CARE,PARTNR,PET SERVICES,-117.13623999999999,32.95047
276,276,2016016516,A &  P DRYWALL INC,CORP,CONSTRUCTION,-117.032845,33.24644
277,277,2003015541,A & A ,SOLE,AUTOMOTIVE,-117.03373,32.68658
278,278,1974011590,A & A CONSTRUCTION CO INC,CORP,"building, developing & general contracting",-117.17728000000001,32.90062
279,279,2008041054,A & A HANDYMAN SERVICES,SOLE,other services to buildings & dwellings,-117.15621000000002,32.716770000000004
280,280,1995012022,A & A LABS LLC/SYNTHETIC BIOMOLECULES,LLC,SCIENCE,-117.188934,32.89934
281,281,2004016565,A & A TIRES & WHEELS & COMPANY INC,CORP,tire dealers,-116.96337,32.56767
282,282,1984012494,A & B AUTO SERVICE/SWEDISH AUTO A.B.,PARTNR,AUTOMOTIVE,-117.18043,32.738827
283,283,1993008148,A & B CAB COMPANY,SOLE,TRANSPORTATION,-117.12233,32.930492
284,284,1998006699,A & B CORE SUPPLY CO,CORP,AUTOMOTIVE,-117.13271,32.705357
285,285,1986003719,A & B LANDSCAPING,CORP,CONSTRUCTION,-116.85895,33.071156
286,286,2016002183,A & B TRANSPORTATION,CORP,TRANSPORTATION,-117.38276,33.673355
287,287,2007001849,A & C CARPENTRY,H-W,services to buildings & dwellings,-116.98443600000002,32.708942
289,289,2019004020,A & E MAINTENANCE,SOLE,janitorial services,-116.99238000000001,32.709908
291,291,2017001901,A & F LANDSCAPE & CONCRETE,SOLE,CONSTRUCTION,-116.98591599999999,32.613293
292,292,2017017799,A & G CLEANING PROFESSIONAL SERVICES,SOLE,janitorial services,-117.05328999999999,32.559509999999996
293,293,1984014175,A & G SALES PROMOTION LTD,CORP,RETAILERS,-117.057594,33.040928
294,294,2014021439,A & G TRANSPORT SERVICES LLC,LLC,WHOLESALE,-117.06553000000001,32.572655
296,296,2006008174,A & H CAB,CORP,TRANSPORTATION,-117.12643999999999,32.75114
297,297,2005000705,A & H INTERNATIONAL FREIGHT,PARTNR,TRANSPORTATION,-116.95461999999999,32.553222999999996
299,299,2017009128,A & J ENVIRONMENTAL SERVICES INC,CORP,CONSTRUCTION,-117.48058999999999,34.011795
300,300,2006000672,A & J HERNANDEZ CLEANING SERVICE,PARTNR,janitorial services,-117.05756000000001,32.692917
301,301,2018013939,A & J LOPEZ CONSTRUCTION,SOLE,other services to buildings & dwellings,-117.05049,32.62145
302,302,2005011024,A & K BIOSOURCE INC,CORP,REPAIR SERVICES,-117.12315,32.9627
303,303,2015033342,A & K ENTERPRISES,PARTNR,on-line information services,-117.12771000000001,32.75307
304,304,2018002363,A & K SALON,PARTNR,beauty salons,-117.13978600000002,32.760933
305,305,2017008933,A & L AUTO REPAIR INC,CORP,AUTOMOTIVE,-117.09791000000001,32.783924
306,306,2001011591,A & L REGISTRATION AND TAX SERVICES,CORP,SCIENCE,-116.92983000000001,32.554287
307,307,1991011045,A & M GARDEN SERVICE,SOLE,janitorial services,-117.128395,32.700138
308,308,2019002074,A & M LLC,LLC,PROPERTY SERVICES,-117.088,32.56328
309,309,1999002286,A & M TEAM SALES,SOLE,CLOTHING,-117.0885,32.594933000000005
310,310,2018011968,A & O TRUCKING,SOLE,TRANSPORTATION,-117.04796599999999,32.555991999999996
311,311,2017018625,A & P AUTO TECH,SOLE,AUTOMOTIVE,-117.15828,32.884796
312,312,2018024371,A & R WELDING,SOLE,CONSTRUCTION,-118.215965,33.88799
313,313,1994000561,A & T CAB,SOLE,all other transit & ground passenger trans,-116.972885,32.87095
314,314,2017015068,A & Y,SOLE,TRANSPORTATION,-117.04668400000001,32.746204
315,315,2006008381,A & Z TRUCKING,H-W,all other personal services,-117.06562,32.55767
316,316,2017003904,A + AUTO SALES,SOLE,AUTOMOTIVE,-117.09612,32.583775
317,317,2009030525,A 1 CONSTRUCTION MANAGEMENT,SCORP,"building, developing & general contracting",-117.15442,32.77687
318,318,2019004625,A 1 MOTORCYCLE TOWING AND TRANSPORT CO,SOLE,AUTOMOTIVE,-117.249794,32.74995
319,319,1999010345,A 1 QUALITY BLINDS,SOLE,RETAILERS,-117.09533,32.959244
320,320,2009001708,A 1 SELF STORAGE,LP,PROPERTY SERVICES,-117.17255,32.726856
321,321,2015022700,A 21 AUTO BODY,SOLE,AUTOMOTIVE,-117.00299,32.745773
322,322,2007003097,A ACCIDENT & INJURY HELPLINE,SOLE,LEGAL,-117.31331999999999,33.102238
323,323,2002000336,A AND A FINANCIAL AND TAX SERVICES,SOLE,SCIENCE,-117.140274,32.716396
324,324,1995010538,A AND B DENTAL LAB,SOLE,MEDICAL,-117.16258,32.969707
325,325,2014013997,A AND B PARTY RENTAL,SOLE,FOOD SUPPLIER,-117.13438400000001,32.700070000000004
326,326,2015037961,A AND L JANITORIAL SERVICE,SOLE,janitorial services,-117.08058999999999,32.678432
327,327,2014008160,A AND M CLEANING,SOLE,janitorial services,-117.06293500000001,32.701073
328,328,2001007384,A AND S FLOORING,CORP,CLEANING SERVICES,-116.96078500000002,32.65255
329,329,1999000278,A AND T ELECTRIC,SOLE,CONSTRUCTION,-117.05989,32.701344
330,330,2008010892,A AWESOME BACKFLOW SERVICE,SOLE,SCIENCE,-116.90301000000001,32.860479999999995
331,331,2010012935,A B & B PLUMBING CO INC,CORP,CONSTRUCTION,-117.041824,32.647457
332,332,2018017093,A B APPLIANCE & SPORTING GOODS,SOLE,SPORTS,-117.12898,32.748447
333,333,1974006051,A B C CONSTRUCTION CO INC,CORP,"building, developing & general contracting",-117.1268,32.695965
334,334,2016021452,A B C SPA,SOLE,MASSAGE,-117.09868,32.78771
335,335,2018002754,A B ENGINEERING,LLC,engineering services,-117.17228,32.81449
336,336,1974013056,A B S ELECTRIC,SOLE,CONSTRUCTION,-117.03806000000002,32.742615
337,337,2015040453,A B SAW & LAWNMOWER SHOP,SOLE,AUTOMOTIVE,-116.924416,32.87401
338,338,2018020752,A BETTER CHOICE,SOLE,TRANSPORTATION,-117.21758,32.83724
339,339,2016005966,A BETTER SWEEP COMPNAY,SOLE,other services to buildings & dwellings,-117.23208000000001,32.937702
340,340,2008022850,A BETTER VIEW EXTERIOR CLEANING SPECIALISTS,H-W,other services to buildings & dwellings,-117.00468000000001,32.771893
341,341,2000005796,A BIT OF HEAVEN CLEANING SERVICE,SOLE,janitorial services,-117.02428400000001,32.801014
342,342,1987009584,A BLACK MT RD PET CLINIC,CORP,SCIENCE,-117.12983999999999,32.95565
343,343,2016024752,A BLADE PROFESSIONAL SALON TOOLS,SOLE,RETAILERS,-117.0194,32.62907
344,344,2017000125,A BLINDS AND SHUTTERS,LLC,RETAILERS,-117.17766,32.82029
345,345,2004016196,A BLISSFUL EVENT,SOLE,other management consulting services,-117.21784,32.742020000000004
346,346,2012022937,A BREATH OF LIFE,SOLE,EDUCATION,-117.0295,32.721779999999995
347,347,2001002080,A C CROSBY & ASSOCIATES,SOLE,SCIENCE,-117.08644,32.69811
348,348,2003010250,A C ELECTRIC CORPORATION,CORP,CONSTRUCTION,-117.04743,32.941074
349,349,2004016659,A CAB,SOLE,TRANSPORTATION,-117.05903,32.956524
350,350,2019002067,A CAPUCINE EVENT DESIGN,SOLE,all other personal services,-117.09535,32.82601
351,351,2014019541,A CARING TOUCH HOME CARE,LLC,services for elderly & disabled persons,-117.04261000000001,32.656765
352,352,2018000078,A CHEF'S TOUCH RESTAURANT DETAILING,SOLE,janitorial services,-117.13181999999999,32.752213
353,353,2017008945,A CHILDS PLACE DAYCARE,H-W,child day care services,-117.13281,32.977191999999995
354,354,2014003150,A CLEANER SPACE,SOLE,janitorial services,-117.08338,32.917408
355,355,1995001522,A CLEANER SWEEP,SOLE,janitorial services,-117.24895500000001,33.05545
356,356,2017003118,A COUPLE CLEANERS,H-W,janitorial services,-117.05975,32.561848
357,357,2014016337,A CUBE NETWORK TECHNOLOGY LLC,LLC,other specialized design services,-117.23138,32.911667
358,358,2003022744,A CUT ABOVE CONCRETE CUTTING INC,CORP,CONSTRUCTION,-116.931175,32.866966
359,359,2001010813,A CUT ABOVE PET GROOMING,SOLE,animal production support activities,-117.131165,32.75033
360,360,2010025716,A D LIVESCAN & NOTARY SERVICES,CORP,LEGAL,-117.15507,32.77365
361,361,2013068223,A DAWN OF MUSIC STUDIOS,SOLE,EDUCATION,-117.20763000000001,32.777588
362,362,2003006958,A DESIGN GARDEN,SOLE,all other personal services,-117.250374,32.9319
363,363,1983014192,A DUIN CONSTRUCTION,SOLE,CONSTRUCTION,-117.02766399999999,33.231120000000004
364,364,2014026105,A F P S INC,CORP,SCIENCE,-117.18198400000001,32.819527
365,365,2005009279,A FAITHFUL COMPANION PROFESSIONAL PET CARE,SOLE,all other personal services,-117.25393999999999,32.73832
366,366,2013061469,A FOTOWAT INC,CORP,architectural services,-117.17331000000001,32.90721
367,367,2011011468,A G GENERAL CONTRACTING AND PAINTING INC,SCORP,CONSTRUCTION,-117.08118,32.63051
368,368,2016012300,A G M CONCRETE SOLUTIONS,SOLE,CONSTRUCTION,-117.016205,32.629128
369,369,1997006384,A G SCIENTIFIC,CORP,individual & family services,-117.2009,32.9019
370,370,2018012202,A G STONE AND TILE INC,CORP,CONSTRUCTION,-117.15337,32.8916
371,371,2017003766,A GARAGE DOOR AND GATE STORE CORP,CORP,CONSTRUCTION,-116.9216,32.858738
372,372,2005007836,A GLASCO INC,CORP,CONSTRUCTION,-116.96773999999999,32.729282
373,373,2014019713,A GLASS MIRROR AND SCREEN SHACK,SOLE,RETAILERS,-117.14738500000001,32.702273999999996
374,374,2005009934,A GOLDEN SUNSET RESIDENTIAL,LLC,NON-PROFIT,-117.06371999999999,32.803894
375,375,2018028162,A GOOD DAY FAMILY VISITATION SERVICES,SOLE,other individual & family services,-117.15316999999999,32.782715
376,376,2005008169,A GOOD ROOFER INC,CORP,CONSTRUCTION,-116.92498,32.858173
377,377,2013026202,A GOOD TALE,SOLE,COMPUTERS,-117.22008500000001,32.915295
378,378,2015023176,A GREEN ALTERNATIVE,CORP,cannabis outlet,-116.93743,32.555786
379,379,2018005258,A HAIR DESIGN BARBER & SALON,PARTNR,barber shops,-117.2505,32.767734999999995
380,380,2019005105,A HEALTHFUL LIFE,SOLE,FITNESS SERVICES,-116.985344,32.613823
381,381,2017003704,A HEART FOR YOU,SOLE,RETAILERS,-117.20168999999999,32.822266
382,382,2013056846,A HELPING HAND,LLC,child day care services,-117.21673999999999,32.73431
383,383,1997006932,A HELPING HAND,CORP,HEALTH SERVICES,-117.15239,32.832745
384,384,2005010918,A I CAB,SOLE,TRANSPORTATION,-117.03380600000001,32.7053
385,385,2003007611,A J C REAL ESTATE INVESTMENT LLC,SOLE,PROPERTY SERVICES,-117.2265,33.009029999999996
386,386,2006013425,A J CRAFT & INTERIORS,H-W,MANUFACTURING,-117.16258,32.905243
387,387,2016016647,A J CRISS INDUSTRIES INC,CORP,CONSTRUCTION,-117.0953,33.097633
388,388,2004000488,A J KIRKWOOD & ASSOCIATES INC,CORP,CONSTRUCTION,-117.80758999999999,33.71602
389,389,1997008013,A J ORCHIDS,SOLE,florists,-117.05927,32.696518
390,390,2004011095,A J SANCHEZ ELECTRICAL SERVICES,SOLE,other services to buildings & dwellings,-117.166595,32.781647
391,391,1988011174,A K DIAMOND,SOLE,WHOLESALE,-117.224205,32.929775
392,392,2006016333,A K GENERAL CONSTRUCTION INC,SCORP,"building, developing & general contracting",-117.21238000000001,32.82734
393,393,2000002963,A K W TUTORING / A K W BUSINESS SERVICES,SOLE,exam preparation & tutoring,-117.19826499999999,32.819263
394,394,2004003652,A KEY FORCE,SOLE,locksmiths,-117.03114,32.61027
395,395,2004003791,A L FINANCIAL CORP,SCORP,FINANCE SERVICES,-117.14313500000002,32.809653999999995
396,396,1974000253,A L JACOBS & SONS JEWELERS,CORP,RETAILERS,-117.232254,32.720917
397,397,2010002385,A L PRESTIGE LOCKSMITH,SOLE,locksmiths,-116.94325,32.84245
398,398,2016020312,A L SQUARED PRODUCTIONS,H-W,all other personal services,-117.13452,32.718967
399,399,2013059440,A LA CARTE EVENTS,SOLE,other personal services,-117.24158,32.8036
400,400,2005010090,A LA JOLLA LANDSCAPE AND DESIGN,SOLE,landscaping services,-117.17518000000001,32.769554
402,402,2009006645,A LIFE OF BALANCE PERSONAL WELLNESS THROUGH PSYCH,SOLE,other individual & family services,-117.10643999999999,32.77022
403,403,2019001852,A LILAC CO,SOLE,RETAILERS,-117.13266999999999,32.777576
404,404,1995000647,A LISCHER DESIGN,SOLE,management consulting services,-117.11247,32.922934999999995
405,405,2015039231,A LIST PRODUCTION,SOLE,ART AND PHOTOGRAPHY,-117.23141000000001,32.722840000000005
406,406,2006014581,A LITTLE BIRDIE TOLD ME    ANN OLIVIA DESIGNS,SOLE,interior design services,-117.05886000000001,32.924126
407,407,2019007795,A LITTLE EXTRA CO,SCORP,RETAILERS,-116.93395,32.555252
408,408,2019007179,A LOVE DESIGNS,SOLE,WHOLESALE,-117.105446,32.837154
409,409,2006002619,A M E PROLINE INC,CORP,"building, developing & general contracting",-117.15442,32.77687
410,410,2018000538,A M G S,SOLE,landscaping services,-117.10225,32.730198
411,411,1991001329,A M ORTEGA CONSTRUCTION INC,CORP,CONSTRUCTION,-116.92651000000001,32.862686
412,412,1989001391,A M SMITH - ARCHITECT,SOLE,engineering services,-117.0306,32.96387
413,413,1993002411,A MART,SOLE,RETAILERS,-117.15343999999999,32.706272
414,414,2006003393,A MART,SOLE,RETAILERS,-117.19981999999999,32.755558
415,415,2019000803,A MATH TUTOR,SOLE,exam preparation & tutoring,-117.12329,32.89781
416,416,2017010530,A MELLO  CONSULTING,SOLE,SCIENCE,-117.17181399999998,32.807903
417,417,2017015128,A MOBILE MARINE,SOLE,REPAIR SERVICES,-117.26364,33.631865999999995
418,418,2009038993,A MOBILE TAX SERVICE,H-W,FINANCE SERVICES,-117.17655,32.82643
419,419,2018013645,A MOVEABLE FEAST EVENTS LLC,LLC,caterers,-116.98147,32.756370000000004
420,420,1988002345,A N B AUTO REPAIR INC,CORP,AUTOMOTIVE,-117.11748999999999,32.749756
421,421,2017016906,A NEW DAY LLC,LLC,RETAILERS,-117.10081000000001,32.93732
422,422,2018004523,A NEW HORIZON SUPERVISED VISITATION,SOLE,other individual & family services,-117.24882,32.932204999999996
423,423,2002002095,A NEW TWIST,CORP,beauty salons,-117.08514,32.93103
424,424,1999000545,A NORTH AMERICAN IMMIGRATION SERVICE,SOLE,all other business support services,-117.0272,32.5809
425,425,1974000228,A O REED & COMPANY,CORP,CONSTRUCTION,-117.15835600000001,32.828518
426,426,1975018668,A OFFICIAL PASSPORTS,SOLE,other personal services,-117.19927,32.745403
427,427,2018002941,A P AUTO SPECIALISTS,LLC,AUTOMOTIVE,-117.16923999999999,32.73035
429,429,2006005191,A P X SPORT DRINK,LLC,all other personal services,-117.10725,32.836735
430,430,2003004828,A PENASQUITOS LAW OFFICE,SOLE,LEGAL,-117.11386,32.912234999999995
431,431,2019007523,A PERFECT CLEAN,PARTNR,janitorial services,-117.04261000000001,32.656765
432,432,2005014165,A PHONE MAN,CORP,other telecommunications,-116.98635,32.74799
433,433,2002002690,A PIANO MAN,H-W,ART AND PHOTOGRAPHY,-117.24762,32.739574
434,434,2012008323,A PLUS ADVANCED TINTING INC,CORP,CONSTRUCTION,-118.04866000000001,33.963943
435,435,2015038255,A PLUS AUTO CENTER,H-W,AUTOMOTIVE,-117.08498999999999,32.713604
436,436,2002005899,A PLUS CARE PLAZA/A PLUS CARE MEDICAL CLINIC,CORP,offices of physicians,-117.0854,32.75697
437,437,2011000007,A PLUS CHARTER CONSULTING,CORP,consulting services,-117.136826,32.82904
438,438,2016005580,A PLUS LIGHTNING,CORP,CONSTRUCTION,-117.15738999999999,32.82175
439,439,2018018386,A PLUS LIMOS,SOLE,TRANSPORTATION,-117.23003999999999,32.910202000000005
440,440,2003003209,A PLUS MATH TUTOR,SOLE,exam preparation & tutoring,-117.07694,32.761234
441,441,2018020660,A PLUS STAR NAILS,SOLE,beauty salons,-117.24694,32.79844
442,442,1997005522,A PLUS SUBS INC.,CORP,employment services,-117.155754,32.781452
443,443,2007028377,A PREMIER RESTORATION SERVICES INC,CORP,"building, developing & general contracting",-117.09566000000001,32.6469
444,444,2000013429,A PROFESSIONAL PERSONNEL SERVICE INC,CORP,employment services,-116.74779,32.847770000000004
445,445,1990000738,A Q'S ROBOTICS CO,SOLE,MANUFACTURING,-117.04263,32.709
446,446,2003023954,A QUALITY LOCKSMITH 4 LESS / MY LOCKSMITH,SOLE,locksmiths,-117.12325,32.8047
447,447,1999011599,A R C SOLUTIONS FOR FLOODS,SOLE,CLEANING SERVICES,-117.02341499999999,32.789597
448,448,2013065112,A R L PRODUCTIONS,SOLE,ART AND PHOTOGRAPHY,-117.088974,32.757683
449,449,1998009230,A R MARKETING,CORP,management consulting services,-117.06591999999999,33.03634
450,450,2013053268,A R RESTORATION INC,CORP,CONSTRUCTION,-117.06256,33.149174
451,451,2005012969,A REASON TO SURVIVE,CORP,NON-PROFIT,-117.213486,32.736713
452,452,1995002794,A ROBERT CROMEANS SALON,CORP,beauty salons,-117.16272,32.708046
453,453,1999005775,A ROBERT CROMEANS SALON,CORP,SCIENCE,-117.25245,32.79723
454,454,2018024825,A RUELAS TRADING LLC,LLC,TRANSPORTATION,-117.07426000000001,32.568290000000005
455,455,1981010125,A S K (AKA) ASSOCIATES OF STANLEY KAUFMAN & OR STA,CORP,SCIENCE,-117.05676000000001,33.0452
456,456,1989004236,A SACRED PLACE,SOLE,HEALTH SERVICES,-117.08098600000001,32.76402
457,457,2018006758,A SALON PM,CORP,beauty salons,-117.120674,32.831936
458,458,2001000150,A SAN DIEGO DERMATOLOGY & COSMETIC SURGERY INC,CORP,offices of physicians,-117.06223999999999,32.778079999999996
460,460,2016004506,A SOURCE TRADING INC,CORP,WHOLESALE,-117.02927,32.924377
461,461,2016000577,A SPRING CLEAN,SOLE,janitorial services,-117.10696000000002,32.745426
462,462,2011005332,A SQUARED,CORP,"management, sci & tech consulting services",-117.07674399999999,33.019974
463,463,2016008506,A SQUARED TECHNOLOGIES INC,CORP,MANUFACTURING,-117.19160500000001,33.137809999999995
464,464,2007025301,A STREET AUTO SERVICE,SOLE,AUTOMOTIVE,-117.16648,32.71841
465,465,2010022964,A SWEET AFFAIRE,PARTNR,all other personal services,-117.06285,32.915688
466,466,2010029922,A SWEET BRIDAL GIFT,SOLE,direct selling establishments,-117.10071,32.971779999999995
467,467,2003021771,A T ASSOCIATES LLC,LLC,PROPERTY SERVICES,-117.069565,32.941406
468,468,1987004276,A T CONTRUCTION & ASSOCIATES,SOLE,CONSTRUCTION,-117.18155,32.800053000000005
469,469,2018018400,A T ELECTRIC,SOLE,CONSTRUCTION,-117.08478000000001,32.735332
470,470,2012055582,A TEAM CONTRACTORS INC,CORP,"building, developing & general contracting",-117.3784,33.196556
471,471,2018008070,A THOMAS GOLDEN ATTORNEY AT LAW,SOLE,LEGAL,-117.12353,32.96105
472,472,2000008088,A TO Z,SOLE,janitorial services,-117.043015,32.710693
473,473,1999013481,A TO Z ENTERPRISES INC/A TO Z TOWING SERVICE,CORP,administrative & support services,-117.13126000000001,32.838795000000005
475,475,2015043177,A TOAST TO BEAUTY,SOLE,"hair, nail & skin care services",-117.15036,32.709713
476,476,2000009198,A TOUCH D'ELEGANCE,PARTNR,PROPERTY SERVICES,-117.05041000000001,32.667763
477,477,2019004008,A TOUCH OF SPYCE,LLC,all other personal services,-117.07323999999998,32.720005
478,478,2013048389,A TOUCH OF THAI MASSAGE LLC,LLC,MASSAGE,-117.20096000000001,32.812744
479,479,1984011856,A V ARIAS & CO,PARTNR,FINANCE SERVICES,-117.16063,32.717815
480,480,2007022722,A V ARIAS ACCOUNTANCY CORPORATION,CORP,FINANCE SERVICES,-117.16063,32.717815
481,481,1981012798,A V BUILDER CORP,CORP,"building, developing & general contracting",-117.18206,32.887127
482,482,2003009984,A VACATION BY THE BAY,SOLE,PROPERTY SERVICES,-117.25171,32.778923
483,483,1981002978,A VIDOVICH CONSTRUCTION,CORP,CONSTRUCTION,-116.87478999999999,32.873837
484,484,2019002673,A W GREEN AND ASSOCIATES,SOLE,FINANCE SERVICES,-117.08336000000001,32.791393
485,485,2014000462,A W PROPERTY MANAGMENT,SOLE,PROPERTY SERVICES,-117.24563,32.750084
486,486,2017015592,A X ARMANI EXCHANGE,CORP,CLOTHING,-117.03583,32.543822999999996
487,487,1993011214,A Y'S DESIGNS IN IRON INC,CORP,SCIENCE,-117.11289,32.68517
488,488,2016014363,A Z GENERAL SERVICE ,H-W,janitorial services,-117.10876,32.954468
489,489,2019005187,A&B CLINICAL RESEARCH INC,SOLE,SCIENCE,-117.15451000000002,32.748463
490,490,2008000278,A&C LANDSCAPING,CORP,landscaping services,-117.08695,32.691586
491,491,2014021960,A&D AUTOWERKS,LLC,AUTOMOTIVE,-117.15488400000001,32.81805
492,492,2009023384,A&D FIRE SPRINKLERS INC,CORP,CONSTRUCTION,-117.16473400000001,32.834656
493,493,2015044468,A&D GC INC,CORP,"building, developing & general contracting",-116.95013999999999,32.851425
494,494,2014012941,A&E DASHI MEDICAL INC,SCORP,HEALTH SERVICES,-117.20728000000001,32.957542
495,495,1999007908,A&E HOUSE CLEANING,SOLE,janitorial services,-117.08237,32.789852
496,496,1997003330,A&E SPORT PRINTS,SOLE,WHOLESALE,-117.08849,32.594933000000005
497,497,2007027253,A&M AUTOS,SOLE,AUTOMOTIVE,-117.18982,32.745036999999996
498,498,2007005288,A&M REINFORCING SPECIALISTS INC,CORP,"building, developing & general contracting",-116.97036999999999,32.829575
499,499,2014020779,A&P CONSTRUCTION CO,SOLE,"building, developing & general contracting",-117.168495,32.904090000000004
500,500,2017019798,A&R AUTO REPAIR,PARTNR,AUTOMOTIVE,-117.05833999999999,32.75375
501,501,2017008850,A&T SERVICES,SOLE,security systems services,-117.15624,32.716770000000004
502,502,1995008609,A&V ALCHEMY/KEVIN SMITH ENTERPRISE,SOLE,AUTOMOTIVE,-117.24463999999999,32.735165
503,503,2019002354,A&V CLEANING SERVICES,LLC,janitorial services,-117.06233999999999,32.708447
504,504,2006004945,A'S JUNK REMOVAL/ SUN HAULING,SOLE,WASTE SERVICES,-117.018295,32.927009999999996
505,505,2019004453,A+ LANDSCAPING SOLUTION,SOLE,landscaping services,-117.11322,32.699852
506,506,2018025127,A+ REPAIR,SOLE,REPAIR SERVICES,-117.02825,32.74458
507,507,2011028138,A+ TUTORING,SOLE,exam preparation & tutoring,-117.121826,32.724728000000006
508,508,1994008668,A+ WINDOW CLEANING,CORP,janitorial services,-116.94272,32.88324
509,509,1997008417,A-1 ALL AMERICAN ROOFING CO SAN DIEGO INC,CORP,CONSTRUCTION,-117.16226,32.888683
510,510,2003013170,A-1 ALLOYS INC,CORP,WHOLESALE,-117.06156999999999,32.566475
511,511,2008006633,A-1 AMERICAN FIRE EQUIPMENT,SOLE,REPAIR SERVICES,-117.20678999999998,32.782295
512,512,2003016995,A-1 AUTO MOTORS FOR YOU,CORP,AUTOMOTIVE,-116.9667,32.567173
513,513,1990007230,A-1 BOOKKEEPING & TAX SERVICE,SOLE,FINANCE SERVICES,-117.203156,32.791622
514,514,1974000742,A-1 DENTAL LAB,CORP,MEDICAL,-117.05963999999999,32.7543
515,515,1999000902,A-1 EXPRESS LOCKSMITH,CORP,locksmiths,-117.15442,32.77687
516,516,1990001374,A-1 PRESTIGE PLUMBING INC,CORP,CONSTRUCTION,-117.04353,32.93495
517,517,1984015577,A-1 SELF STORAGE,SOLE,warehousing & storage,-117.09956000000001,32.779872999999995
518,518,2017000738,A-1 SELF STORAGE,PARTNR,PROPERTY SERVICES,-117.08408,32.58167
519,519,2007002533,A-1 SELF STORAGE,PARTNR,warehousing & storage,-117.18693999999999,32.759228
520,520,2007002531,A-1 STORAGE,PARTNR,warehousing & storage,-117.18444,32.740627
521,521,2004000654,A-1 TILE,H-W,CONSTRUCTION,-117.24515,33.189888
522,522,1981007838,A-1SELF STORAGE INC,CORP,PROPERTY SERVICES,-117.09531399999999,32.78295
523,523,2003012333,A-AALL SERVICES INC,CORP,CONSTRUCTION,-117.08813500000001,33.125617999999996
524,524,1983013421,A-ACADEMICS/AA TUTORS,SOLE,exam preparation & tutoring,-117.20358999999999,32.87042
525,525,2004002308,A-ADVANCED ELECTRICAL & COMMUNICATIONS CABLING CO,SOLE,CONSTRUCTION,-116.94514,32.893093
526,526,1998001185,A-B-CPR & FIRST AID TRAINING,SOLE,exam preparation & tutoring,-117.15556000000001,32.924355
527,527,1993008970,A-CHAU SANDWICH & FOOD TO GO,SOLE,FOOD SERVICES,-117.07694,32.761109999999995
528,528,1980062062,A-I FIRE PROTECTION INC,CORP,CONSTRUCTION,-117.18085500000001,32.88204
529,529,2017012528,A-LOGISTICS & TRADING CORPORATION,CORP,TRANSPORTATION,-116.93593999999999,32.556206
530,530,1991006104,A-Y-M CAR & TOWING CO,SOLE,AUTOMOTIVE,-117.10093,32.74505
531,531,1990010914,A-Z BATH & KITCHEN,SOLE,SCIENCE,-117.131676,32.920635
532,532,2003007056,A-Z RESOURCES GROUP,SOLE,all other business support services,-117.13336000000001,32.928653999999995
533,533,2003008479,A. B. HASHMI,CORP,"building, developing & general contracting",-117.06476599999999,32.949905
534,534,2011004537,A.E.L. CONSTRUCTION  INC.,CORP,"building, developing & general contracting",-117.11131,33.122368
535,535,2004002971,A.L.M. CONSULTING ENGINEERS INC,SCORP,SCIENCE,-117.14657,32.89755
536,536,2019003771,A.M. BUSH WILDLIFE ART,SOLE,ART AND PHOTOGRAPHY,-117.09213999999999,32.758507
537,537,2013036882,A.R. BARDSLEY CONSTRUCTION,SOLE,CONSTRUCTION,-116.871925,32.725654999999996
538,538,2009026258,A1 AIR CONDITIONING HEATING & SERVICE COMPANY INC,CORP,CONSTRUCTION,-117.15958,32.74998
539,539,2019006211,A1 AUTO WRAPS,SOLE,AUTOMOTIVE,-117.05611,32.678084999999996
540,540,2019002522,A1 CLEANING SERVICES,SOLE,janitorial services,-117.031044,32.719609999999996
541,541,1996000674,A1 CONCRETE PUMPING INC,CORP,SCIENCE,-117.02698999999998,32.956264000000004
542,542,2016003805,A1 DRAIN,SOLE,other services to buildings & dwellings,-116.68932,32.624596000000004
543,543,1993004048,A1 HYDRAULICS SERVICES,CORP,REPAIR SERVICES,-117.10358000000001,32.66424
544,544,2010011980,A1 PROTECTIVE SERVICES INC,CORP,security guards & patrol services,-117.169624,32.731194
545,545,2018022792,A1 PROTECTIVE SERVICES LLC,LLC,security guards & patrol services,-117.169624,32.731194
546,546,2003005193,A1 SELF STORAGE,LP,PROPERTY SERVICES,-117.16615,32.839954
547,547,2003005197,A1 SELF STORAGE ,LLC,PROPERTY SERVICES,-117.201416,32.769657
548,548,2019004287,A1 SNACK SHOP,CORP,RETAILERS,-117.16086000000001,32.713615000000004
549,549,1989003646,A1 UNLIMITED DRAIN SERVICE,SOLE,SCIENCE,-117.11436499999999,32.747066
550,550,2004014066,A2 STUDIOS ,LLC,architectural services,-117.14632399999999,32.74729
551,551,2004003834,A2E TECHNOLOGIES,LLC,COMPUTERS,-117.09398,33.009353999999995
552,552,2016002645,A2M CONTRACTORS INC,CORP,"building, developing & general contracting",-116.97888999999999,32.637592
553,553,2018013167,A2Z HANDYMAN,SOLE,other services to buildings & dwellings,-122.025246,37.998898
554,554,2009022986,A4A TIRE COMPANY,SOLE,tire dealers,-117.134254,32.70637
555,555,2004001002,A7D CREATIVE GROUP INC,CORP,graphic design services,-117.13212,32.748447
556,556,2017019565,AA BLOCKS LLC,LLC,TRANSPORTATION,-117.22753999999999,32.947815000000006
558,558,2016000595,AA FASHION LLC,LLC,CLOTHING,-117.07694,32.761109999999995
559,559,2015041688,AA INNOVATIVE SOLUTIONS,CORP,engineering services,-117.23988999999999,32.796715
560,560,2016001771,AA LIVESCAN AND NOTARY SERVICES,SOLE,LEGAL,-117.13898,32.746693
561,561,2017009483,AA PEDICAB,SOLE,pedi-cab (company),-117.15137,32.711529999999996
562,562,2003005377,AA PRESTIGE STONE INC,CORP,CONSTRUCTION,-117.24141999999999,33.151035
563,563,1989002268,AA PROFESSIONAL HOUSEKEEPING SERVICE,SOLE,other personal services,-116.998375,32.832397
564,564,2005001633,AA SMOG SHOP SAN DIEGO AUTO CLINIC,SOLE,AUTOMOTIVE,-117.19823000000001,32.7452
565,565,1978044168,AA SORRENTO VALLEY PET CEMETERY,CORP,SCIENCE,-117.22161000000001,32.899536
566,566,1991000799,AA&A ARMS AND ARMOUR APPRSAL/VANGUARD RES CNTS APP,SOLE,other personal services,-117.098656,32.90336
567,567,1994003485,AAA ALLIANCE SELF STORAGE,LP,warehousing & storage,-117.14484399999999,32.8328
568,568,2005007361,AAA DETAIL,SOLE,carwashes,-117.19823000000001,32.7452
569,569,1975017762,AAA FIRST AID SUPPLIES,SOLE,RETAILERS,-117.12823,32.73859
570,570,2002005565,AAA GLASS,SOLE,AUTOMOTIVE,-117.15488,32.818016
571,571,2012002418,AAA JAPANESE CAR SPECIALISTS,SOLE,AUTOMOTIVE,-117.12336,32.89654
572,572,1996012417,AAA LANDSCAPE SPECIALISTS INC,SOLE,management consulting services,-117.22832,33.122578000000004
573,573,2019003942,AAA MOTEC COMPLETE AUTO CARE / MOTEC AUTO CARE,SOLE,AUTOMOTIVE,-117.15836000000002,32.884857000000004
574,574,2017001250,AAA MULTI MEDIA CONSULTANTS,SOLE,consulting services,-117.06127,33.038740000000004
575,575,2000006364,AAA PACKAGING MATERIALS INC,CORP,WHOLESALE,-117.16293999999999,32.884453
576,576,2000011862,AAA PIANO INC.,CORP,other personal services,-117.24788000000001,32.807194
577,577,2009021927,AAA PROPERTY SERVICES,CORP,CONSTRUCTION,-118.5716,34.433246999999994
578,578,2007027636,AAA QUALITY SPECIAL INSPECTIONS,SOLE,other personal services,-117.2389,32.747143
579,579,2000012149,AAA REFINISHING CORP,CORP,CONSTRUCTION,-118.3342,34.19445
580,580,2008010763,AAA TONY BUI,SOLE,FOOD SERVICES,-117.156975,32.810596000000004
581,581,1997003777,AAA TRAVEL AGENCY,CORP,SCIENCE,-117.204384,32.83233
582,582,2005013202,AAA ZATARAIN TOWING,SOLE,AUTOMOTIVE,-117.02893,32.58525
583,583,1974006644,AAAA AUTO STORAGE,CORP,personal care services,-117.1119,32.71897
584,584,2013066013,AADILA INTERNATIONAL,SOLE,CLOTHING,-117.09902,32.7015
585,585,2016010690,AAE SERVICES INC,CORP,CONSTRUCTION,-118.001625,34.127953000000005
586,586,2018007018,AAHARN AT UNIVERSITY CITY,CORP,FOOD SERVICES,-117.21472,32.85096
587,587,1988000394,AAIR PURIFICATION SYSTEMS,CORP,RETAILERS,-117.15543999999998,32.888397
588,588,1995011167,AALL CARE IN HOME SERVICES,CORP,nursing care facilities,-117.1557,32.773266
589,589,1991006857,AALONA COUNSELING CENTER,SOLE,HEALTH SERVICES,-117.20103999999999,32.807334999999995
591,591,1997012584,AANCO FENCE CO,PARTNR,CONSTRUCTION,-117.02086000000001,32.718533
592,592,2018023402,AARAN INTERPRETING,SOLE,translation & interpretation services,-117.15061999999999,32.782143
593,593,1993000142,AARDVARK SELF STORAGE A,SOLE,warehousing & storage,-117.119125,32.824047
594,594,2009020747,AARON BELFANTI & GREEN ASSOCIATES INC,CORP,collection agencies,-116.9591,32.883778
595,595,2012001258,AARON IDEKER  CPA,SOLE,FINANCE SERVICES,-117.16888999999999,32.828255
596,596,2018024178,AARON KNOWLES & MELISSA ORBAN,H-W,PROPERTY SERVICES,-117.14583,33.014614
597,597,2013021527,AARON LUCHANS/ NIRIT LUCHANS,H-W,PROPERTY SERVICES,-117.230034,32.941124
598,598,2003023758,AARON MOVING,SOLE,used household & office goods moving,-117.13819,33.061268
599,599,2018022103,AARON S BALL,SOLE,COMPUTERS,-117.14262,32.80966
600,600,2018021132,AARON SCOTT LACY HAIR,SOLE,PROPERTY SERVICES,-117.15533,32.713640000000005
601,601,2018026069,AARON T SCHWARTZ,SOLE,COMPUTERS,-117.25606499999999,32.80627
602,602,2018021617,AARON THOMAS MEDIA,SOLE,ART AND PHOTOGRAPHY,-117.12645,32.754191999999996
603,603,2017017087,AARON'S BATHTUB REFINISHING,SOLE,other services to buildings & dwellings,-117.08859,32.679028
605,605,2015051008,AARROW INC,SCORP,SCIENCE,-117.231606,32.748898
606,606,2016005934,AARROW SIGN SPINNERS  LLC,LLC,all other personal services,-117.21006000000001,32.758140000000004
607,607,2003000481,AB & E FUN JUMPS,SOLE,all other personal services,-117.02881000000001,32.71113
608,608,2018002317,AB APPLIANCE,SOLE,REPAIR SERVICES,-117.19726599999998,32.801792
609,609,2018001407,AB AUTO SALES INC,CORP,AUTOMOTIVE,-117.14632399999999,32.75063
610,610,1986001206,AB AUTO UPHOLSTERY,SOLE,AUTOMOTIVE,-117.15198000000001,32.834488
611,611,2007021345,AB COLLAR INTERNATIONAL INC,CORP,all other personal services,-117.09763999999998,32.72759
612,612,1994009503,AB CONSTRUCTION,SOLE,CONSTRUCTION,-117.02438000000001,33.002224
613,613,2008006082,AB COURT & ASSOCIATES STRUCTURAL & SEISMIC ENGINEE,SCORP,engineering services,-117.17235600000001,32.756477000000004
614,614,2007030407,AB ENGINEERING INC,CORP,management consulting services,-117.198654,32.784040000000005
615,615,2003002527,AB MOBILE GLASS,SOLE,AUTOMOTIVE,-117.009895,32.736694
616,616,2009010936,AB RECYCLING,CORP,materials recovery facilities,-117.10099,32.737843
617,617,2018022695,AB&N TRANSPORT INC,CORP,TRANSPORTATION,-116.93183,32.554337
618,618,2010032468,ABA,NO/PRF,NON-PROFIT,-117.126724,32.837284000000004
619,619,2014014617,ABA EDUCATION FOUNDATION,SCORP,EDUCATION,-117.15491499999999,32.773693
620,620,1994005268,ABA RECOVERY SERVICE,CORP,SCIENCE,-117.08842,32.802414
621,621,2015021236,ABA VERBAL BEHAVIOR GROUP INC,SCORP,child & youth services,-117.11695,32.816982
622,622,1996002705,ABACI INTERNATIONAL INC,CORP,EDUCATION,-117.08299,32.91207
623,623,2019007525,ABACUS ADS,SOLE,advertising agencies,-117.14693500000001,32.908854999999996
624,624,2003005164,ABACUS DATA SYSTEMS INC,CORP,COMPUTERS,-117.20233999999999,32.880604
625,625,2009015898,ABACUS PROJECT MANAGEMENT INC,SCORP,management consulting services,-117.87591599999999,33.658577
626,626,2005015317,ABALTA TECHNOLOGIES INC,SCORP,COMPUTERS,-117.18404,32.9021
627,627,2009021813,ABAMEX DISTRIBUTORS INC,CORP,WHOLESALE,-116.93395,32.555252
628,628,2009028750,ABATIX CORP,CORP,WHOLESALE,-117.17893000000001,32.880134999999996
629,629,2006001876,ABAYNEH D BIRATU,SOLE,TRANSPORTATION,-117.13633999999999,32.751686
630,630,2013025147,ABB INC,CORP,COMPUTERS,-117.12221000000001,32.814953
631,631,2017010694,ABBA PROJECT MANAGEMENT,SCORP,management of companies & enterprises,-117.23753,32.95491
632,632,1990010767,ABBEY PARTY RENTS,CORP,PROPERTY SERVICES,-117.16516000000001,32.884743
633,633,2019001441,ABBEYRODEART,SOLE,ART AND PHOTOGRAPHY,-117.13246000000001,32.71584
634,634,1998013395,ABBIE & TJ PRODUCTIONS,SOLE,all other amusement & recreation industries,-117.07439,33.02021
635,635,2017010547,ABBIOTEC INC,CORP,SCIENCE,-117.15014,32.893593
636,636,2014044615,ABBOTT ANALYTICS,SOLE,EDUCATION,-117.21213999999999,32.855774
637,637,2009009966,ABBOTT HEARING CENTERS,SOLE,HEALTH SERVICES,-117.045235,32.8029
638,638,2019004889,ABBOTT PEST CONTROL,CORP,exterminating & pest control services,-117.31296,33.109818
639,639,2005007272,ABBOTT PROPERTIES,H-W,PROPERTY SERVICES,-117.24391000000001,32.738594
640,640,2015020695,ABBOTT STREET MARKET,SCORP,RETAILERS,-117.25023999999999,32.750916
641,641,2018016102,ABBY P YOUNGS ,SOLE,ART AND PHOTOGRAPHY,-117.24090600000001,32.750343
642,642,2015025840,ABBYS AMENITIES,SOLE,advertising & related services,-117.12588000000001,32.92505
643,643,2016010230,ABBYS HOME TEXTILES,CORP,CLOTHING,-117.03581000000001,32.549690000000005
644,644,2007025187,ABBYWHO INC,SCORP,ART AND PHOTOGRAPHY,-117.18482,33.015809999999995
645,645,2018015409,ABC BABY AND BEACH RENTALS,SOLE,PROPERTY SERVICES,-117.168976,32.820934
646,646,2004001077,ABC CHILDREN'S DENTISTRY,CORP,offices of dentists,-117.10756,32.951134
647,647,2001006897,ABC CHILDRENS CENTER,CORP,child day care services,-117.23301000000001,32.92678
648,648,2019008721,ABC COMPLIANT,PARTNR,consulting services,-117.12343999999999,32.89501
649,649,2003005003,ABC FIRE EQUIPMENT CO,SOLE,other business services,-116.95746000000001,32.86452
650,650,2007005481,ABC GLASS INC,CORP,CONSTRUCTION,-117.18433,32.823215000000005
651,651,2017012204,ABC HERS RATING,SCORP,SCIENCE,-116.9616,32.834379999999996
652,652,2013048194,ABC HYDRA PHOTOGRAPHY,SOLE,ART AND PHOTOGRAPHY,-117.24561000000001,32.809208
653,653,2013050136,ABC LIOVIN DRILLING INC,CORP,"architectural, engineering & related services",-118.17671000000001,33.80075
654,654,2001010112,ABC LIQUOR STORE,CORP,BARS,-117.24122,32.74868
655,655,2016002671,ABC MONEY EXCHANGE,SCORP,FINANCE SERVICES,-116.94223999999998,32.5535
656,656,2016022539,ABC MONEY EXCHANGE,SCORP,FINANCE SERVICES,-117.03618,32.549873
657,657,2017005062,ABC MONEY EXCHANGE,CORP,AUTOMOTIVE,-117.0341,32.547752
658,658,2015037174,ABC MONEY EXCHANGE,SCORP,check cashing,-117.03796000000001,32.550740000000005
659,659,2016022538,ABC MONEY EXCHANGE,SCORP,FINANCE SERVICES,-116.94264,32.554806
660,660,1997012817,ABC MONEY EXCHANGE,SCORP,check cashing,-117.05495,32.556152000000004
661,661,2008000608,ABC RECON,LLC,AUTOMOTIVE,-117.150375,32.81997
662,662,2012004821,ABC RESOURCES INC,CORP,CONSTRUCTION,-117.67916000000001,34.059868
663,663,2010018347,ABC SECURITY SERVICE INC,CORP,security systems services,-122.24283999999999,37.781403000000005
664,664,2015039092,ABC SMOG,SOLE,AUTOMOTIVE,-117.203224,32.790424
665,665,1992007707,ABC VETERINARY HOSPITAL,SOLE,PET SERVICES,-117.23258999999999,32.80062
666,666,2003017172,ABC VETERINARY HOSPITAL-UPTOWN,SOLE,PET SERVICES,-117.14806999999999,32.75202
667,667,2016000451,ABC WHEELS,SOLE,WHOLESALE,-117.16588,32.88365
669,669,2013001365,ABCD RENTAL MANAGEMENT,SOLE,PROPERTY SERVICES,-117.018005,32.618404
670,670,1990007616,ABCO VINYL POOL REPAIR,SOLE,CONSTRUCTION,-117.17463000000001,32.784115
671,671,2017019496,ABDALLA STORE,SOLE,RETAILERS,-117.079384,32.756374
672,672,2011031297,ABDELLATIF ENTERPRISES  INC.,CORP,CONSTRUCTION,-117.67518999999999,33.574078
673,673,2006010908,ABDIFATAH A DALMAR,SOLE,TRANSPORTATION,-117.087204,32.750984
674,674,2010025879,ABDIFATAH BARKHADLE,SOLE,all other transit & ground passenger trans,-117.08797,32.747147
675,675,2009013558,ABDINASIR SHEIK HASSAN,SOLE,TRANSPORTATION,-117.07806000000001,32.743076
676,676,2008016392,ABDIRASHID G HUSSEIN,SOLE,TRANSPORTATION,-117.056274,32.7065
677,677,2008003510,ABDISALAN A SAID,SOLE,TRANSPORTATION,-117.08523000000001,32.747105
678,678,2018011796,ABDIWALI ADAN,SOLE,TRANSPORTATION,-117.11061000000001,32.75124
679,679,2009008059,ABDU M ALI,SOLE,TRANSPORTATION,-117.12768999999999,32.753586
680,680,2017019167,ABDUL JENDI ,SOLE,TRANSPORTATION,-117.10565,33.023185999999995
681,681,2018020278,ABDULAHI ALI,SOLE,TRANSPORTATION,-117.08169,32.729946000000005
682,682,2006003114,ABDULJELIL NAGIBULLA WALLY,SOLE,TRANSPORTATION,-117.071945,32.98166
683,683,2006010761,ABDULLA I BAHADARI,SOLE,TRANSPORTATION,-117.20065,32.785767
684,684,2006012642,ABDULLAH POPAL,SOLE,TRANSPORTATION,-117.123604,32.919827000000005
685,685,2006011329,ABDULLAH WAHAB,SOLE,TRANSPORTATION,-117.131744,32.80238
687,687,2015047630,ABE LIEBHABER BOWS,SOLE,REPAIR SERVICES,-117.13485,32.762867
688,688,2018023441,ABE RUIZ DESIGN,LLC,electronic shopping & mail-order houses,-117.13198,32.718983
689,689,2003019599,ABEBE LANKEBO,SOLE,TRANSPORTATION,-117.18803,32.83347
690,690,2007003906,ABED MANAGEMENT COMPANY INC,CORP,PROPERTY SERVICES,-117.14815,32.809585999999996
691,691,2008035409,ABEL MIA,CORP,TRANSPORTATION,-117.05277,32.672733
692,692,2006010882,ABEL OLIVARRIA,SOLE,TRANSPORTATION,-117.05341999999999,32.55952
693,693,2004004614,ABEL PAINTING,SOLE,other services to buildings & dwellings,-117.088,32.74832
694,694,2015021040,ABELINO HERNANDEZ,SOLE,swap meet vendor,-117.08641000000001,32.576492
695,695,2017017134,ABEO MANAGEMENT CORPORATION,CORP,admin & gen management consulting services,-117.15319,32.811844
696,696,2015033597,ABEOMICS INC,CORP,manufacturing,-117.18886599999999,32.899208
697,697,2006006329,ABERCROMBIE & FITCH #11357,CORP,CLOTHING,-117.20863999999999,32.873875
699,699,1996006986,ABI OFFICE FURNITURE INC,CORP,FURNITURE,-117.12839,32.89695
700,700,2003003083,ABI'S LANDSCAPING,SOLE,all other personal services,-117.16996,32.82093
701,701,2018011803,ABIGAIL CONSULTING,SOLE,consulting services,-117.22183000000001,32.810272
702,702,2014021502,ABIGAIL R HITEHEN PSYD INC,SCORP,HEALTH SERVICES,-117.11246000000001,32.898716
703,703,2017003749,ABIGAILS HOMES  LLC,LLC,PROPERTY SERVICES,-117.02296000000001,32.710335
704,704,2003020241,ABILITIES FAMILY LEARNING CENTER,SOLE,EDUCATION,-117.24762,32.739574
705,705,1994006533,ABILITY AUTO BODY & PAINT INC,CORP,AUTOMOTIVE,-117.12337,32.896618
706,706,1987003190,ABILITY CENTER,CORP,RETAILERS,-117.158424,32.828827000000004
707,707,1995011874,ABILITY CENTER AUTO SALES,CORP,AUTOMOTIVE,-117.158424,32.828827000000004
708,708,2014026830,ABILITY PLUMBING SERVICE AND REPAIR,SOLE,CONSTRUCTION,-116.97918,32.860046000000004
709,709,2019001039,ABINAV CHANDRA,SOLE,PROPERTY SERVICES,-117.25421999999999,32.78881
710,710,2017015722,ABJ CONTRACTORS INC,CORP,"building, developing & general contracting",-117.05833,32.57267
711,711,2019002905,ABK ASSOCIATES,SCORP,all other personal services,-117.13758,32.750103
712,712,2007029447,ABLE BUILDING MAINTENANCE COMPANY,SCORP,janitorial services,-117.12981,32.83795
713,713,2013065227,ABLE HEATING   AIR CONDITIONING  INC,CORP,CONSTRUCTION,-117.08775,32.611717
714,714,1974009348,ABLE PATROL & GUARD,CORP,SCIENCE,-117.09508000000001,32.782959999999996
715,715,2006000643,ABLE TRUCK SERVICE & ODYSSEY CAB,SOLE,TRANSPORTATION,-117.118324,32.764103000000006
716,716,2018019587,ABLEXIS LLC,LLC,SCIENCE,-117.22125,32.896313
717,717,2016000584,ABLIZ,LLC,PROPERTY SERVICES,-117.16561000000002,32.809459999999994
718,718,2014014211,ABM BUILDING SERVICES LLC,LLC,administrative & support services,-117.13175,32.809616
719,719,2017013120,ABM ELECTRICAL POWER SERVICES LLC,LLC,CONSTRUCTION,-117.13175,32.809616
720,720,2013060424,ABM INDUSTRY GROUPS LLC,LLC,parking lots & garages,-117.169174,32.717896
721,721,2019004999,ABM PAINTING AND WALLCOVERING,CORP,CONSTRUCTION,-117.468254,33.75841
722,722,2012019969,ABM PARKING SERVICES,CORP,parking lots & garages,-117.15848500000001,32.773476
723,723,2013047572,ABM PARKING SERVICES INC,CORP,parking lots & garages,-117.1547,32.71496
724,724,2004017114,ABODE APPLIANCE REPAIRS,SOLE,REPAIR SERVICES,-117.09313,32.786903
725,725,2017000375,ABOGATO LLP,PARTNR,LEGAL,-117.1674,32.719359999999995
726,726,2000001913,ABORIGINAL DIDJERIDUS,SOLE,swap meet vendor,-117.214676,32.754191999999996
727,727,2015041660,ABOUT PROPERTIES,SOLE,PROPERTY SERVICES,-117.25465,32.73261
728,728,2016017648,ABOUT YOU DAY SPA AND SALON,SOLE,beauty salons,-117.12768999999999,32.749309999999994
729,729,1993011222,ABOVE & BEYOND CARPET CARE,CORP,CLEANING SERVICES,-117.006096,32.747246000000004
730,730,2006009592,ABOVE ALL ADVERTISING INC,SCORP,electronic shopping & mail-order houses,-117.13168999999999,32.89645
731,731,2001011326,ABOVE ALL AWNING CLEANING,SCORP,services to buildings & dwellings,-117.15176000000001,32.890877
732,732,2003001656,ABOVE ALL TATTOO,CORP,tattoo parlors,-117.24921,32.797955
733,733,2016021241,ABOVE ALL TAXI,SOLE,TRANSPORTATION,-117.0384,32.685013
734,734,1995010593,ABOVE AND BEYOND TRAVEL,SOLE,TRAVEL,-117.218025,32.829525
735,735,1990000290,ABOVE AVERAGE,SOLE,AUTOMOTIVE,-117.025154,32.689938
736,736,2019000751,ABOVE PERFECTOIN SERVICES,SOLE,CLEANING SERVICES,-117.09323,32.669865
737,737,2018004165,ABP BACKFLOW INC,CORP,CONSTRUCTION,-117.110405,32.784363
738,738,1993001494,ABR TELDATA,SOLE,SCIENCE,-117.17406499999998,32.747078
739,739,1989004687,ABRACADABRA DESIGNS ASSOCIATES,SOLE,all other business support services,-117.16073999999999,32.91771
740,740,2014014429,ABRAHAM AUTO REPAIR,SCORP,AUTOMOTIVE,-117.09782,32.784206
741,741,2006000338,ABRAHAM ESKENAZI,SOLE,HEALTH SERVICES,-117.20107,32.797012
742,742,2006008989,ABRAHAM SOLOMON SOLOMON,SOLE,TRANSPORTATION,-117.14371499999999,32.74535
743,743,2013048897,ABRAITIS FENCE COMPANY,SOLE,CONSTRUCTION,-117.151375,32.904920000000004
744,744,2016018978,ABRAMSON TEIGER ARCHITECTS,SOLE,architectural services,-118.38798500000001,34.026447
745,745,1998011165,ABRE ENTERPRISES,CORP,SCIENCE,-117.0585,32.594727
746,746,2014016576,ABREHAM WORKU WOLDEYOHANNES,SOLE,TRANSPORTATION,-117.10516000000001,32.734898
747,747,2018011928,ABROAD EDUCATION AND TECHNOLOGY INVESTMENTS LLC,LLC,EDUCATION,-117.20506999999999,32.900978
748,748,2005002856,ABS AUTO AUCTIONS,CORP,WHOLESALE,-117.09138,32.80024
749,749,2018003146,ABS REFINMENT,SOLE,beauty salons,-117.12977,32.95588
750,750,2016013808,ABSOLI TRANSPORTATION LLC,LLC,TRANSPORTATION,-117.11945,32.764294
751,751,2008016390,ABSOLUTE ABATEMENT & DEMOLITION,H-W,CONSTRUCTION,-118.05521,33.964515999999996
752,752,2018018054,ABSOLUTE CABINET AND FLOORING,SOLE,RETAILERS,-117.09618999999999,32.782959999999996
753,753,2019004242,ABSOLUTE CARE HEALTH SYSTEMS HOSPICE INC,CORP,HEALTH SERVICES,-117.15186000000001,32.89089
754,754,2011018843,ABSOLUTE CASINO,SOLE,"amusement, gambling & recreation industries",-117.11786000000001,32.965157
755,755,2017003412,ABSOLUTE COLLECTIONS CORPORATION,CORP,collection agencies,-117.15848500000001,32.773476
756,756,2014041800,ABSOLUTE LASER TATTOO REMOVAL AMC,SCORP,HEALTH SERVICES,-117.16075,32.83266
757,757,2014017942,ABSOLUTE PAWFECTION INC,CORP,PET SERVICES,-117.22232,32.900288
758,758,2005015844,ABSOLUTE POOL AND SPA CARE,SOLE,CLEANING SERVICES,-117.08245,33.02667
759,759,2013068114,ABSOLUTE RESULTS REAL ESTATE SERVICES,SOLE,PROPERTY SERVICES,-117.232056,32.9238
760,760,1990015761,ABSOLUTE SKIN,SOLE,beauty salons,-117.12956000000001,32.73043
761,761,2015030047,ABSOLUTE SOLUTIONS INC,SCORP,management consulting services,-117.13448999999999,32.83818
762,762,1996002961,ABSOLUTE TATTOO/PERMANENT COSMTICS/PIERCNG & HENNA,SOLE,other personal services,-117.14976999999999,32.832752
763,763,2018005798,ABSOLUTE THERAPY SERVICES,LLC,other individual & family services,-117.068375,33.118145
764,764,1994002158,ABSOLUTELY BALLOONS,SOLE,RETAILERS,-117.02251399999999,32.795063
765,765,1993005071,ABSOLUTELY EFFECTIVE HYPHOTHERAPY,SOLE,HEALTH SERVICES,-117.14126999999999,32.749393
766,766,2019005866,ABSORPTION SYSTEMS CALIFORNIA LLC,LLC,SCIENCE,-117.15013,32.827259999999995
767,767,2010000275,ABSORPTION SYSTEMS INC,CORP,SCIENCE,-117.15207,32.827255
768,768,2010000274,ABSORPTION SYSTEMS INC,CORP,SCIENCE,-117.15095500000001,32.827255
769,769,2016002442,ABSORPTION SYSTEMS INC,CORP,SCIENCE,-117.13176999999999,32.809444
770,770,2004005189,ABT MEDICAL SUPPLY INC,CORP,HEALTH SERVICES,-117.14885,32.831276
772,772,2014001377,ABUELITA AT TUTOR VILLAGE,SOLE,EDUCATION,-117.11539499999999,32.90343
773,773,2003023958,ABUNDANT HARVEST CHURCH,CORP,religious organizations,-117.12931999999999,32.719666
774,774,2004000026,ABUNDANT HARVEST CHURCH OF FAITH,NO/PRF,religious organizations,-117.12931999999999,32.719666
775,775,2003013341,ABUNDANT LIFE CHRISTIAN WORSHIP CENTER,NO/PRF,religious organizations,-117.091545,32.978302
776,776,2019002636,ABUNDEZ YACHT SERVICES,SOLE,other personal services,-117.09732,32.657295
777,777,2018012166,ABURI SUSHI,LLC,FOOD SERVICES,-117.12929,32.74086
778,778,2013005885,ABWIZ BIO INC,CORP,SCIENCE,-117.18871999999999,32.898796000000004
779,779,2014016620,ABX COLLISION CENTERS INC,SCORP,AUTOMOTIVE,-117.23807,32.917324
780,780,2016008947,ABYSAM CANDYS,H-W,direct selling establishments,-117.05587,32.562870000000004
781,781,2019001333,ABYSSINIA CAB,SOLE,TRANSPORTATION,-117.12288000000001,32.75942
782,782,2000009883,ABZ APLLIANCES SERVICE,SOLE,REPAIR SERVICES,-116.99728400000001,32.850857
783,783,2017014755,AC DISTRIBUTOR,SOLE,WHOLESALE,-117.1116,32.749706
784,784,2014033618,AC FOREIGN TRADE CORP,CORP,other business support services,-116.932,32.55742
785,785,2017009642,AC MARTIN PARTNERS INC,CORP,"architectural, engineering & related services",-117.08778000000001,32.644825
786,786,2003023465,AC PAINTING AND CONSTRUCTION INC,CORP,CONSTRUCTION,-116.80425,32.840668
787,787,1996007265,AC/DC ELECTRIC,CORP,CONSTRUCTION,-117.03725,32.627990000000004
788,788,1988007645,ACACIA LANDSCAPE CO,SOLE,CONSTRUCTION,-117.06966399999999,32.609703
789,789,2008009303,ACADEMI TRAINING CENTER LLC,LLC,EDUCATION,-116.97478500000001,32.55336
790,790,2018023191,ACADEMIC CARPET CARE,LLC,CLEANING SERVICES,-117.22359499999999,32.868355
791,791,2012032265,ACADEMIC INTEGRITY SEMINAR,LLC,EDUCATION,-117.212326,32.921158
792,792,2019000616,ACADEMY FOR SUCCESSFUL ENGLISH (ASE),SOLE,EDUCATION,-117.16916,32.747334
793,793,2004013605,ACADEMY FUNDING,CORP,FINANCE SERVICES,-117.15319,32.811844
794,794,2014017437,ACADEMY OF DENTAL PRACTICE CAREERS INC,CORP,EDUCATION,-117.1516,32.832752
795,795,1982013216,ACADEMY OF THE MARTIAL ARTS A,SOLE,SPORTS,-117.09605,32.906845000000004
796,796,2015025653,ACADEMY SECURITIES INC,CORP,FINANCE SERVICES,-117.24066,32.948536
797,797,1997011523,ACADIA PHARMACEUTICALS INC,CORP,SCIENCE,-117.23573999999999,32.937492
798,798,2017011405,"ACASSA, INDEPENDENT CONTRACTOR",SOLE,HEALTH SERVICES,-117.17217,32.729973
799,799,2010027507,ACC BUSINESS MACHINES,SOLE,REPAIR SERVICES,-117.13802,32.820570000000004
800,800,2015040522,ACC3 INTERNATIONAL INCOPORATED,SCORP,consulting services,-117.13969399999999,32.891563
801,801,2018003442,ACCEL DEVELOPMENT INC,CORP,"building, developing & general contracting",-117.16579399999999,32.834652
802,802,2016019262,ACCEL INTEGRATED,SOLE,CONSTRUCTION,-117.157196,32.80572
803,803,1998009217,ACCEL MANAGEMENT GROUP INC,CORP,SCIENCE,-117.18547,32.852737
804,804,2010022291,ACCEL MOTORS,SOLE,AUTOMOTIVE,-117.13462,32.838066
805,805,2008038415,ACCELA CHEMBIO INC,CORP,other direct selling establishments,-117.189095,32.899597
806,806,2016001777,ACCELERATED ACADEMICS,CORP,EDUCATION,-117.07453999999998,32.580546999999996
807,807,1997001552,ACCELERODE ENTERPRISES,PARTNR,broadcasting & telecommunications,-117.21728999999999,32.853477000000005
808,808,1997013213,ACCELSOFT INC,CORP,RETAILERS,-117.24857,32.95081
810,810,2007003038,ACCENT HOME HEALTH CARE OF CALIFORNIA,CORP,HEALTH SERVICES,-117.1203,32.83076
811,811,2015049865,ACCENTCARE HOME HEALTH AT UC SAN DIEGO HEALTH LLC,LLC,HEALTH SERVICES,-117.18535,32.852345
812,812,1993009728,ACCENTCARE HOME HEALTH OF CALIFORNIA INC,CORP,HEALTH SERVICES,-117.1203,32.83076
813,813,1988014080,ACCENTS ON HEALTH,CORP,EDUCATION,-117.139145,32.80972
814,814,2015033270,ACCEPTANCE INSURANCE AGENCY OF TENNESSEE INC,CORP,INSURANCE,-117.16436999999999,32.83263
815,815,2014024253,ACCEPTANCE NOW 09649,LLC,RETAILERS,-117.15095500000001,32.88505
816,816,1988003702,ACCES/I O PRODUCTS,CORP,MANUFACTURING,-117.22175,32.896744
817,817,2018028200,ACCESS AMBULANCE SERVICES & MEDICAL TRANSPORTATION,LLC,TRANSPORTATION,-117.1557,32.773266
818,818,2013022949,ACCESS CARE,SOLE,HEALTH SERVICES,-117.33353400000001,33.1856
819,819,2017014880,ACCESS CFOS INC,SCORP,FINANCE SERVICES,-117.23743999999999,32.930009999999996
820,820,2015037372,ACCESS COLLISION CENTER,CORP,AUTOMOTIVE,-117.10087,32.785015
821,821,2005011967,ACCESS DENTAL CARE MOBILE SERVICES,CORP,offices of dentists,-117.12951000000001,32.762886
822,822,2018013040,ACCESS ELECTRIC INC,CORP,CONSTRUCTION,-117.8445,33.715509999999995
823,823,1999003067,ACCESS INC,CORP,civic & social organizations,-117.16453,32.79271
824,824,2001001012,ACCESS MUSIC,SOLE,RETAILERS,-117.2246,32.811873999999996
825,825,1999003547,ACCESS SECURITY CONTROLS INTERNATIONAL,CORP,CONSTRUCTION,-117.7129,33.64659
826,826,2015042906,ACCESS SYSTEMS INTEGRATION,CORP,SCIENCE,-117.74598,33.664665
827,827,2019001987,ACCESS TRAX LLC,LLC,RETAILERS,-117.219,32.74915
828,828,1995002207,ACCESSIBLE SAN DIEGO,CORP,civic & social organizations,-117.16368,32.71675
829,829,2019003868,ACCESSIBLE SOLAR & ENERGY STORAGE,SOLE,services to buildings & dwellings,-117.04971,32.567097
830,830,2011023228,ACCESSORIZE IT,SOLE,swap meet vendor,-117.08351,32.661217
831,831,1985006555,ACCIDENT & INDUSTRIAL INJURY CLINIC,SOLE,offices of chiropractors,-117.08462,32.721428
832,832,2009019823,ACCLAIM ELECTRIC INC,SCORP,CONSTRUCTION,-117.05221599999999,33.105408000000004
833,833,1974006373,ACCO ENGINEERED SYSTEMS,CORP,CONSTRUCTION,-118.28623999999999,34.164494
834,834,2018022882,ACCORD TECHNOLOGIES PACETECH ENERGY,SOLE,COMPUTERS,-117.11312,33.011276
835,835,2015050766,ACCOUNT ON ME LLC,LLC,FINANCE SERVICES,-117.1314,32.716892
836,836,2010002539,ACCOUNTABLE AIR CONDITIONING INCORPORATED,CORP,CONSTRUCTION,-117.72206000000001,34.019634
837,837,2004016264,ACCOUNTANTS DIRECT INC,LLC,FINANCE SERVICES,-117.24181999999999,32.930527000000005
838,838,2006000601,ACCOUNTED 4,SOLE,FINANCE SERVICES,-117.22786,32.74668
839,839,1992004678,ACCOUNTING SERVICES,PARTNR,FINANCE SERVICES,-117.05148,32.76895
840,840,2017006889,ACCOUNTINGEDGE CONSULTING LLC,LLC,FINANCE SERVICES,-117.32635,33.128370000000004
841,841,2014000510,ACCOUNTWERKS INC,CORP,FINANCE SERVICES,-117.31158400000001,33.15845
842,842,2011005762,ACCREDITED DEBT RELIEF,LLC,FINANCE SERVICES,-117.20335,32.880340000000004
843,843,1990013625,ACCREDITED HOME LENDERS INC,CORP,FINANCE SERVICES,-117.08113999999999,32.992138
844,844,1996001389,ACCREDITED INSPECTION,SOLE,SCIENCE,-117.11756000000001,32.73214
845,845,2009035800,ACCU CARE CREMATION CENTER,CORP,funeral homes,-117.15451999999999,32.834742999999996
846,846,1997012255,ACCUBILL PROFESSIONAL SERVICES,SOLE,management consulting services,-117.25231000000001,32.746338
847,847,2000004367,ACCUBUILD CONSTRUCTION INC,CORP,CONSTRUCTION,-117.02663999999999,32.794907
848,848,2001010389,ACCUCOLOR PAINT/ ACCUCAR PAINT,H-W,AUTOMOTIVE,-117.3265,33.17736
849,849,2016019526,ACCULAB LIFE SCIENCES LLC,LLC,SCIENCE,-117.22996499999999,32.905094
850,850,1996001300,ACCULINE SURVEY INC,CORP,engineering services,-117.23432,32.79918
851,851,2010021796,ACCUQUEST HEARING CENTERS INC,CORP,HEALTH SERVICES,-117.07546,33.018456
852,852,2006002059,ACCUQUIX PROPERTY SERVICES,CORP,PROPERTY SERVICES,-117.196175,32.7901
853,853,2018025114,ACCURATE ACOUSTICS INC,CORP,CONSTRUCTION,-117.26428,34.06306
854,854,2009018865,ACCURATE AIR ENGINEERING INC,CORP,CONSTRUCTION,-116.96390500000001,32.846596000000005
855,855,1979057368,ACCURATE CHEM/SCNTF CORP,CORP,SCIENCE,-117.15943999999999,32.745148
856,856,2016024287,ACCURATE HEATING AND AIR CONDITIONING,LLC,CONSTRUCTION,-117.568924,34.106503000000004
857,857,2011034663,ACCURATE INDUSTRIAL CONSTRUCTION INC,CORP,CONSTRUCTION,-117.86709599999999,33.851646
858,858,1986011132,ACCURATE MACHINE SHOP SERVICE,CORP,MANUFACTURING,-117.16313999999998,32.88868
859,859,2013017173,ACCURATE MECHANICAL,PARTNR,CONSTRUCTION,-117.140305,32.90488
860,860,1983011037,ACCURATE SECURITY PROS INC,CORP,REPAIR SERVICES,-117.11267,32.91383
861,861,2004013548,ACCURATE TIME,SOLE,swap meet vendor,-117.214676,32.754191999999996
862,862,1995000349,ACCURATE USA,PARTNR,MANUFACTURING,-117.22388500000001,32.93057
863,863,2008003019,ACCURATO.COM INC,CORP,FURNITURE,-117.16917,32.712723
864,864,2003004738,ACCUTEK RESTORATION INC,SCORP,all other personal services,-117.095505,32.95904
865,865,2009000184,ACE  PARKING MANAGEMENT INC 1061,CORP,parking lots & garages,-117.16086000000001,32.720929999999996
866,866,2019008589,ACE AND PLUSH,SOLE,WHOLESALE,-117.06796999999999,33.000137
867,867,2014004713,ACE APPLIANCE SERVICE,SOLE,all other personal services,-117.14255,32.758247
868,868,2006014050,ACE BOBCAT SERVICE LLC,LLC,CONSTRUCTION,-117.24212,32.747409999999995
869,869,2005001669,ACE CAB #501,H-W,TRANSPORTATION,-117.04668400000001,32.746204
870,870,2014002092,ACE COMMERCIAL SERVICES,SOLE,janitorial services,-117.14028,32.903884999999995
871,871,2018018248,ACE CONTRACTORS,CORP,CONSTRUCTION,-117.22462,32.813328000000006
872,872,1991001669,ACE COOLER'S,CORP,CONSTRUCTION,-117.15225,32.830875
873,873,2006012083,ACE DENTAL STUDIO,H-W,LABS,-117.14589,32.83105
874,874,1995012047,ACE ELECTRIC,CORP,CONSTRUCTION,-117.10152,32.784294
875,875,2015051113,ACE FENCE COMPANY,CORP,CONSTRUCTION,-117.95045,34.031513000000004
876,876,2006005786,ACE HAULING SERVICE INC,CORP,TRANSPORTATION,-117.09506,33.181816
877,877,2014004522,ACE INTERNET SERVICES OF CA,SOLE,consulting services,-117.215546,32.85117
878,878,2005009753,ACE INVENTORY SERVICES,SOLE,all other support services,-116.99123,32.720543
879,879,1994005377,ACE LIQUOR,CORP,RETAILERS,-117.25128000000001,32.76546
880,880,2007002619,ACE MESSENGER AND ATTORNEY SERVICE INC,SCORP,LEGAL,-117.16368,32.71675
881,881,2003022663,ACE MUFFLER & ACE EMERGENCY MOBILE,SOLE,AUTOMOTIVE,-117.13911,32.69654
882,882,2012059744,ACE PARKING III LLC #1408,LLC,parking lots & garages,-117.16198999999999,32.72511
883,883,2013028972,ACE PARKING III LLC #1506,LLC,parking lots & garages,-117.20728999999999,32.781025
884,884,1999002954,ACE PARKING INC,CORP,personal care services,-117.158875,32.719887
885,885,1999002953,ACE PARKING MANAGEMENT,CORP,personal care services,-117.158875,32.719887
886,886,2004005282,ACE PARKING MANAGEMENT #1050,CORP,parking lots & garages,-117.15853,32.707283000000004
887,887,2000000303,ACE PARKING MANAGEMENT #108,CORP,personal care services,-117.1637,32.718834
888,888,2001000954,ACE PARKING MANAGEMENT #587,CORP,personal care services,-117.159035,32.711506
889,889,2003007510,ACE PARKING MANAGEMENT 1016,CORP,SCIENCE,-117.160866,32.717804
890,890,2012005438,ACE PARKING MANAGEMENT INC,CORP,office administrative services,-117.15911000000001,32.719887
891,891,2009037932,ACE PARKING MANAGEMENT INC,CORP,personal care services,-117.16361,32.749912
892,892,2012005574,ACE PARKING MANAGEMENT INC,CORP,TRANSPORTATION,-117.17836000000001,32.736095
893,893,2005010725,ACE PARKING MANAGEMENT INC  #1022,CORP,parking lots & garages,-117.16561000000002,32.718422
894,894,2010011908,ACE PARKING MANAGEMENT INC  #1315,CORP,parking lots & garages,-117.16063,32.717815
895,895,2005004703,ACE PARKING MANAGEMENT INC #1052,CORP,parking lots & garages,-117.15529,32.714695
896,896,2005004679,ACE PARKING MANAGEMENT INC #1067,CORP,parking lots & garages,-117.1617,32.731384000000006
897,897,2005004699,ACE PARKING MANAGEMENT INC #1075,CORP,parking lots & garages,-117.17766,32.727672999999996
898,898,2005001082,ACE PARKING MANAGEMENT INC #1076,CORP,parking lots & garages,-117.15864599999999,32.708344
899,899,2006004666,ACE PARKING MANAGEMENT INC #1080,CORP,parking lots & garages,-117.16828000000001,32.72054
900,900,2007004329,ACE PARKING MANAGEMENT INC #1128,CORP,parking lots & garages,-117.15175,32.706276
901,901,2007005145,ACE PARKING MANAGEMENT INC #1134,CORP,parking lots & garages,-117.212616,32.87507
902,902,1998003569,ACE PARKING MANAGEMENT INC #1139,CORP,personal care services,-117.20758000000001,32.87552
903,903,1989014279,ACE PARKING MANAGEMENT INC #1150,CORP,personal care services,-117.16398000000001,32.708729999999996
904,904,2009005304,ACE PARKING MANAGEMENT INC #1160,CORP,parking lots & garages,-117.21508999999999,32.872345
905,905,2009012805,ACE PARKING MANAGEMENT INC #1207,CORP,parking lots & garages,-117.156006,32.710445
906,906,2008032964,ACE PARKING MANAGEMENT INC #1303,CORP,parking lots & garages,-117.22391499999999,32.871056
907,907,1990014736,ACE PARKING MANAGEMENT INC #1415,CORP,personal care services,-117.16739,32.71812
908,908,1992007909,ACE PARKING MANAGEMENT INC #246,SOLE,personal care services,-117.1674,32.718918
909,909,1990001555,ACE PARKING MANAGEMENT INC #316,CORP,personal care services,-117.15829,32.718857
910,910,2010011926,ACE PARKING MANAGEMENT INC 1123,CORP,parking lots & garages,-117.15914,32.7199
911,911,2008036884,ACE PARKING MANAGEMENT INC 1151,CORP,parking lots & garages,-117.15749,32.70492
912,912,2008032985,ACE PARKING MANAGEMENT INC 1178,CORP,parking lots & garages,-117.16368,32.71675
913,913,2007029727,ACE PARKING MANAGEMENT INC 1300,CORP,management of companies & enterprises,-117.22553,32.870144
914,914,2010011930,ACE PARKING MANAGEMENT INC 1401,CORP,parking lots & garages,-117.15413999999998,32.800247
915,915,1994011466,ACE PARKING MANAGEMENT INC 282,CORP,personal care services,-117.16561000000002,32.718303999999996
916,916,1993006342,ACE PARKING MANAGEMENT INC#375,CORP,personal care services,-117.16848,32.76125
917,917,1974011089,ACE RADIATOR SERVICE,CORP,AUTOMOTIVE,-117.14608999999999,32.701374
918,918,1992002762,ACE RELOCATION SYSTEMS INC,CORP,warehousing & storage,-117.197,32.882397
919,919,2003005850,ACE RESTORATION & WATERPROOFING INC,SCORP,CONSTRUCTION,-117.34376499999999,33.157635
920,920,1996010907,ACE TECH,CORP,REPAIR SERVICES,-117.15451999999999,32.826332
921,921,2018001869,ACEA THERAPEUTICS INC,CORP,SCIENCE,-117.17418,32.901688
922,922,2013056145,ACEBO,H-W,direct selling establishments,-117.19453999999999,32.82432
923,923,2018022311,ACEISACE,SOLE,WHOLESALE,-117.02915,32.677452
924,924,2017009272,ACENDA INC,CORP,RETAILERS,-117.13969399999999,32.891563
925,925,2018028167,ACER TRAVEL,SOLE,TRAVEL,-117.11828,33.005984999999995
926,926,2006004505,ACES EMBROIDERY,H-W,MANUFACTURING,-117.17701000000001,32.83736
927,927,1997010807,ACETEC,CORP,SCIENCE,-117.20268,32.90155
928,928,1991009779,ACEVES TRUCKING CO INC,CORP,warehousing & storage,-116.92783999999999,32.55581
929,929,2015030717,ACH MECHANICAL CONTRACTORS INC,SCORP,CONSTRUCTION,-117.20545,34.05859
930,930,2008002139,ACHATES POWER INC,CORP,SCIENCE,-117.2195,32.903477
931,931,1987010777,ACHESON BOGAERT & CARNAGO CPAS,PARTNR,FINANCE SERVICES,-117.07648,33.01668
932,932,2016000630,ACHIEVE 7,PARTNR,other personal care services,-117.05668,32.750240000000005
934,934,2016015649,ACHIEVE TMS CENTERS,SCORP,HEALTH SERVICES,-117.20983999999999,32.875946
935,935,2016014713,ACHIEVER ACADEMY,SCORP,EDUCATION,-117.11693600000001,32.817513
936,936,2019004165,ACHILLES COFFEE ROASTERS,CORP,FOOD SERVICES,-116.86377,32.809227
937,937,2015002845,ACHILLES COFFEE ROASTERS,SOLE,RETAILERS,-117.15828,32.719887
938,938,2006010846,ACHIOTE BY LA ESPANADA,LLC,FOOD SERVICES,-117.03613,32.543877
939,939,1974011185,ACKROYD & VAN HOOSE OPTOMETRY A PARTNERSHIP,PARTNR,offices of optometrists,-117.16155,32.832664
940,940,2012035563,ACKS GLOBAL INC,SCORP,WHOLESALE,-117.075806,33.03083
941,941,2005004693,ACM / C&G INVESTORS I LLC,LLC,PROPERTY SERVICES,-117.15196,32.71624
942,942,2014030621,ACME EDUCATION,SOLE,EDUCATION,-117.115555,32.750473
943,943,1999002805,ACME SAFETY & SUPPLY CORP,CORP,SCIENCE,-117.10390500000001,32.667393
944,944,1999009042,ACME TRAINING/AVIATION COMMUNICATION MARITIME ELEC,SOLE,exam preparation & tutoring,-117.18038999999999,32.806248
945,945,2016004202,ACME WINDOW CLEANING,SOLE,janitorial services,-117.12772,32.75962
946,946,2019003904,ACOSTA & CORRALES AUTO SALES LLC,LLC,AUTOMOTIVE,-117.06302,32.56769
947,947,2018002560,ACOSTAS MULTI SERVICE CENTER,LLC,tax preparation services,-117.035675,32.547756
948,948,1999013456,ACOUSTICS & BUILDING INTERIORS INC,CORP,CONSTRUCTION,-117.052986,32.951164
949,949,1984005785,ACOUSTICWORKS INC,CORP,CONSTRUCTION,-117.11215,33.12175
950,950,2004014883,ACQUA LINEA,SOLE,office administrative services,-116.96658000000001,32.755558
951,951,1988002297,ACR,SOLE,SCIENCE,-117.1742,32.810320000000004
952,952,2011025821,ACRIDINE CONSULTING,SOLE,information & data processing services,-117.13132,32.730778
953,953,2017004835,ACROSS TOWN MOVERS,CORP,TRANSPORTATION,-116.94233,32.551727
954,954,2019003252,ACRU JANITORIAL SERVICES,SOLE,janitorial services,-117.1858,32.828934000000004
955,955,1994011555,ACS POOL SERVICES,PARTNR,SCIENCE,-117.07758000000001,32.980915
956,956,2005007633,ACS RISING INC,SCORP,WHOLESALE,-117.13645,32.932567999999996
957,957,2013068258,ACS SAN DIEGO,H-W,PROPERTY SERVICES,-117.04726000000001,32.605373
958,958,1996001269,ACT,SOLE,WHOLESALE,-117.137276,32.965145
959,959,2017008232,ACT ADVOCACY INC,CORP,other individual & family services,-117.1974,32.756029999999996
960,960,2009034415,ACT INDEPENDENT LIVING SERVICES,LLC,services for elderly & disabled persons,-117.1974,32.756029999999996
961,961,2017008236,ACT INDEPENDENT LIVING SERVICES LLC,LLC,other individual & family services,-117.1974,32.756029999999996
962,962,2017008233,ACT RESPITE SERVICES LLC,LLC,other individual & family services,-117.1974,32.756029999999996
963,963,2015012865,ACT RESPITE SERVICES LLC,LLC,services for elderly & disabled persons,-117.1974,32.756029999999996
964,964,2017008234,ACT SUPPORTED LIVING SERVICES LLC,LLC,other individual & family services,-117.1974,32.756029999999996
965,965,2016009486,ACTAVALON INC,CORP,SCIENCE,-117.23766,32.901066
966,966,1987010975,ACTION AIR CONDITIONING & HEATING,CORP,CONSTRUCTION,-117.20388999999999,33.16017
967,967,2015036332,ACTION BEACH & BAY RENTALS INC,CORP,other amusement & recreation industries,-117.25332,32.789524
968,968,2003023724,ACTION BEVEL,SOLE,WHOLESALE,-117.121124,32.738407
969,969,1995011500,ACTION CAB,SOLE,all other transit & ground passenger trans,-117.030014,32.783253
970,970,2014018296,ACTION CASE MANAGEMENT INC,SCORP,management of companies & enterprises,-117.21513999999999,32.851067
971,971,1987006756,ACTION CLEANING CORP,CORP,other business services,-117.14973400000001,32.70256
972,972,1982013346,ACTION FIRE SYSTEMS CO INC,CORP,CONSTRUCTION,-117.00191000000001,32.71853
973,973,2018026674,ACTION GLASS & METAL,SOLE,CONSTRUCTION,-118.000206,33.723537
974,974,2000012020,ACTION HYPNOSIS,SOLE,individual & family services,-117.20103999999999,32.807334999999995
975,975,2018023308,ACTION MARK PLUMBING INC,CORP,CONSTRUCTION,-117.15326,32.749035
977,977,2015041275,ACTION SPORTS,CORP,PROPERTY SERVICES,-117.24954,32.772053
978,978,2013057581,ACTIVATE FINANCIAL LLC,LLC,INSURANCE,-117.07868,32.993652000000004
979,979,1983010602,ACTIVCARE LIVING,CORP,SCIENCE,-117.12376,32.83368
980,980,1999001515,ACTIVE BUILDING MAINTENANCE CO,SOLE,janitorial services,-117.082214,32.690353
981,981,2008009016,ACTIVE COMPANION,H-W,on-line information services,-116.956604,32.66564
983,983,2018010922,ACTIVE DRYWALL SOLUTIONS,SOLE,REPAIR SERVICES,-117.10448500000001,32.746857
984,984,2018016625,ACTIVE LIFE INC,SCORP,HEALTH SERVICES,-117.15438999999999,32.800259999999994
985,985,2006015655,ACTIVE LTD PARTNERSHIP,PARTNR,PROPERTY SERVICES,-117.19843,32.794662
986,986,2019002473,ACTIVE PROTECTION SERVICES,SCORP,security guards & patrol services,-117.21137,32.750384999999994
987,987,2003020307,ACTIVEHERB TECHNOLOGY INC,CORP,electronic shopping & mail-order houses,-117.17106000000001,32.884113
988,988,2003005424,ACTS TILE & STONE,SOLE,other services to buildings & dwellings,-117.00899,32.615035999999996
990,990,2016013509,ACUAGREEN COMMERCIAL PRODUCTS LLC,LLC,WHOLESALE,-117.24618500000001,32.74635
991,991,2013060666,ACUJIN HOLISTIC THERAPIES,SCORP,other personal care services,-117.18146000000002,32.819496
993,993,2017017338,ACUPUNCTURE,SOLE,MASSAGE,-117.13817,32.820515
994,994,2003022283,ACUPUNCTURE & CHINESE MEDICINE CENTER INC,CORP,HEALTH SERVICES,-117.1251,32.817966
995,995,2003018402,ACUPUNCTURE AND ORIENTAL MEDICINE OF CARMEL VALLEY,SOLE,MEDICAL,-117.22890500000001,32.95197
996,996,2006003984,ACUPUNCTURE HEALTHCARE INCORPORATED,CORP,HEALTH SERVICES,-117.20015,32.89157
997,997,2016011366,ACUPUNCTURE II SPA,SOLE,MASSAGE,-117.14986999999999,32.830887
998,998,2004007831,ACUPUNCTURE INTERGRATIVE THERAPY ,SOLE,other personal care services,-117.24086000000001,32.95715
999,999,1996006737,ACUSPORT SEMINAR SERIES INC,SCORP,exam preparation & tutoring,-117.25458,32.735096
1000,1000,2003009714,ACUSSAGE,SOLE,HEALTH SERVICES,-117.12619,32.822323
1001,1001,1997003517,ACUTE CARE PHARMACEUTICALS,CORP,WHOLESALE,-117.07364,32.98708
1002,1002,2017014956,ACWEEKLY INC,CORP,RETAILERS,-117.20268,32.90155
1003,1003,2016009793,AD HAIR DESIGNS,SOLE,other personal care services,-117.2473,32.745841999999996
1004,1004,2002000286,AD NIL NETWORKS/CYBER LOGIC NETWORKS/AD NIL COMPAN,SOLE,COMPUTERS,-117.05028,32.922259999999994
1005,1005,2016010508,AD SERVICES,SOLE,janitorial services,-117.08576000000001,32.753864
1006,1006,2013066499,AD SINGLETON & CO CPA INC,CORP,FINANCE SERVICES,-117.254616,32.933834000000004
1007,1007,2011001614,AD THREE SIXTY,SOLE,advertising & related services,-117.20662,32.974940000000004
1008,1008,2005004471,AD TRADING LLC,LLC,WHOLESALE,-117.15983999999999,32.888866
1009,1009,2016012083,AD-JUSTER INC,CORP,COMPUTERS,-117.09621399999999,32.958233
1010,1010,2019001698,ADAIL BASTOS INC,SCORP,CONSTRUCTION,-117.17995,32.790794
1011,1011,1993008946,ADALBERTOS MEX FOOD,CORP,FOOD SERVICES,-117.14043000000001,32.711597
1012,1012,2018028334,ADALL SERVICE LLC,LLC,all other transit & ground passenger trans,-117.12393,32.761444
1013,1013,2013047264,ADAM & EVE STORE,LLC,CLOTHING,-117.16141,32.748257
1014,1014,2019001943,ADAM AUTOMOTIVE,SOLE,AUTOMOTIVE,-117.08746000000001,32.74947
1015,1015,2016020786,ADAM B SAWYER,SOLE,services to buildings & dwellings,-117.07413000000001,32.799313
1016,1016,2014013445,ADAM DAVALOS,SOLE,LEGAL,-117.19117,32.74897
1017,1017,2018025684,ADAM LOCK ,SOLE,engineering services,-117.133896,32.756927000000005
1018,1018,2018016445,ADAM M MORAWSKI ,SOLE,other amusement & recreation industries,-117.233376,32.791008000000005
1019,1019,2018008892,ADAM P RAYNARD,SOLE,SPORTS,-117.04206,32.804497
1020,1020,2015034041,ADAM PEREZ,SOLE,MASSAGE,-117.15733,32.750107
1022,1022,2007028705,ADAM'S LANDSCAPING & LAWN CARE,SOLE,landscaping services,-117.18066999999999,33.281242
1023,1023,2013019227,ADAMS AVE LOCK AND KEY,PARTNR,locksmiths,-117.13082,32.706394
1024,1024,2018023614,ADAMS AVENUE BICYCLES INC,CORP,SPORTS,-117.13632,32.762875
1025,1025,1979050897,ADAMS AVENUE CAR WASH,CORP,SCIENCE,-117.12273,32.763366999999995
1026,1026,2010003724,ADAMS AVENUE WELLNESS PROFESSIONALS,SOLE,HEALTH SERVICES,-117.13344599999999,32.762879999999996
1027,1027,2003011640,ADAMS ELECTRICAL CONTRACTORS,CORP,CONSTRUCTION,-116.98928000000001,32.831734000000004
1028,1028,1997011091,ADAMS FINANCIAL,SOLE,PROPERTY SERVICES,-117.18645500000001,32.855465
1029,1029,2004000540,ADAMS HAIR DESIGN,H-W,beauty salons,-117.12448,32.763366999999995
1030,1030,2010013090,ADAMS IMPORT CAR SPECIALIST,SOLE,AUTOMOTIVE,-117.12611399999999,32.76339
1031,1031,1993000175,ADAMS IMPORT CAR SPECIALIST,CORP,AUTOMOTIVE,-117.12611399999999,32.76339
1032,1032,2009026994,ADAN CRUZ ROOFING CO,SOLE,CONSTRUCTION,-117.29128999999999,33.19138
1033,1033,2017013597,ADAPTIVE ACCOUNTING AND BUSINESS SOLUTIONS,SOLE,FINANCE SERVICES,-117.15598999999999,32.941322
1034,1034,1998013446,ADBRAN RECORDS,SOLE,RETAILERS,-117.139595,32.951176000000004
1035,1035,1994007033,ADD EXPRESS INC,CORP,TRANSPORTATION,-116.95941,32.55488
1036,1036,2009002606,ADDED-HIGH -TECH PROFESSIONALS CAREER CROSSROADS,SOLE,advertising & related services,-117.10196,32.823273
1037,1037,2014000428,ADDICTION & MENTAL HEALTH COUNSELING OF SAN DIEGO,SOLE,HEALTH SERVICES,-117.0832,33.021015000000006
1038,1038,1986008110,ADDIS CAB/ GMT CAB,SOLE,TRANSPORTATION,-117.15058,32.704487
1039,1039,2001009594,ADDISON DESIGNS,CORP,SCIENCE,-117.04741999999999,32.816387
1040,1040,2013057213,ADDISONS CANDIES,LLC,FOOD SUPPLIER,-117.15493000000001,32.78884
1042,1042,2010018135,ADECCO,SOLE,employment services,-117.20733,32.87343
1043,1043,2009012321,ADEL NIZKER,SOLE,PROPERTY SERVICES,-117.158424,32.773415
1044,1044,2018019217,ADELAIDA COTA,SOLE,all other personal services,-117.057976,32.674034000000006
1045,1045,1996009011,ADELE FORWARDING LTD,CORP,TRANSPORTATION,-117.133,32.831383
1046,1046,2018001541,ADELITA PROFESSIONAL CLEANING,SOLE,other services to buildings & dwellings,-117.06668,32.711529999999996
1047,1047,2014025224,ADELMAN FINE ART,LLC,ART AND PHOTOGRAPHY,-117.169754,32.724909999999994
1048,1048,2010028471,ADELPHES INC,SCORP,other business support services,-117.09775,32.78605
1049,1049,2015039012,ADELSMAN CUSTOM CABINETRY,CORP,MANUFACTURING,-117.16131999999999,32.88868
1050,1050,2016015927,ADELYNE MARIE,SOLE,PROPERTY SERVICES,-117.14025,32.713894
1051,1051,1998011081,ADEPT CREATIVE MEDIA,SCORP,SCIENCE,-117.16828000000001,32.718212
1052,1052,2010007126,ADEPT PROCESS SERVICES INC,CORP,all other personal services,-117.11275,32.667465
1053,1053,2003024345,ADER ENTERPRISES INC,CORP,SCIENCE,-117.07083999999999,32.979454
1054,1054,2004013715,ADESA SAN DIEGO,LLC,AUTOMOTIVE,-116.98843000000001,32.558113
1055,1055,2007011991,ADG OVERHEAD DOORS INC,CORP,REPAIR SERVICES,-117.15203999999999,32.890879999999996
1056,1056,2016010670,ADHARA INC,CORP,administrative & support services,-116.94248,32.551722999999996
1057,1057,1990003540,ADHARA INDUSTRIAL POLISHING SERVICES INC,CORP,SCIENCE,-116.94248,32.551722999999996
1058,1058,2018017100,ADI,CORP,WHOLESALE,-117.12326000000002,32.820873
1059,1059,2009038022,ADI,SOLE,SCIENCE,-117.233635,32.958459999999995
1060,1060,2008000494,ADI SHURUK THE BULL,SOLE,REPAIR SERVICES,-117.19588,32.815459999999995
1061,1061,2013061553,ADINA MANOLESCU D D S INC,SCORP,offices of dentists,-117.09785,32.791237
1062,1062,2003011558,ADIOS PEST CONTROL INC,CORP,all other personal services,-117.13376000000001,33.251514
1063,1063,2018026119,ADITI VENGURLEKAR,SOLE,COMPUTERS,-117.21663000000001,32.86765
1064,1064,2018028277,ADIVARS MERCANTILE,SOLE,RETAILERS,-117.11335,33.010338
1066,1066,2005008997,ADKINS CONSTRUCTION,CORP,CONSTRUCTION,-116.78935,32.81645
1067,1067,1999008851,ADKISON ENGINEERS INC,CORP,SCIENCE,-117.44569399999999,33.947502
1068,1068,1974014156,ADLER ROBERT A DDS INC,CORP,offices of dentists,-117.15935,32.749992
1069,1069,2007015390,ADLER SPORTS MARKETING INC,SCORP,all other business support services,-117.183846,32.754257
1070,1070,2000012964,ADMAS WINE & SPIRITS,CORP,BARS,-117.13432,32.762879999999996
1071,1071,2009005768,ADMIN ASSIST SAN DIEGO,SOLE,office administrative services,-117.12836999999999,32.97578
1072,1072,2006014561,ADMINISTRATIVE OUTSOURCE PROCESSING & INS SERVICE ,SOLE,INSURANCE,-117.04881999999999,32.704895
1073,1073,2012044643,ADMIRAL SECURITY SERVICES,SCORP,investigation & security services,-122.03413,37.97773
1074,1074,2000012864,ADMIRALTY MARINE,CORP,RETAILERS,-117.23227,32.720894
1075,1075,1993002153,ADMIRE GLASS CO,SOLE,RETAILERS,-117.11187,32.74859
1076,1076,2010002544,ADN REAL ESTATE SERVICES,SOLE,PROPERTY SERVICES,-117.121796,32.7684
1077,1077,2012064280,ADNAN PEZO,SOLE,services to buildings & dwellings,-117.121826,32.72475
1078,1078,2017004676,ADOLESCENT PROJECT 2020,NO/PRF,NON-PROFIT,-117.15522,32.773604999999996
1079,1079,2015021840,ADOLFO PEREZ DESIGN,SOLE,graphic design services,-117.07373,32.568295
1080,1080,2014024220,ADONIS PERSONAL SERVICES,SOLE,services for elderly & disabled persons,-117.0096,32.719153999999996
1081,1081,2019000364,ADONIS POOLS,SOLE,CLEANING SERVICES,-117.231125,32.724506
1082,1082,2008039028,ADOPTION CENTER OF SAN DIEGO,NO/PRF,social advocacy organizations,-117.11935,32.809956
1083,1083,2018004900,ADORABLE GIFTS LLC,LLC,RETAILERS,-117.08101,32.922470000000004
1084,1084,2000008845,ADORATIONS,CORP,florists,-117.15108500000001,32.83464
1085,1085,1984008413,ADPAK ADVERTISING & MARKETING COMPANY,SOLE,advertising agencies,-117.09705,32.830776
1086,1086,2002005669,ADRENALINE ,CORP,RETAILERS,-117.14488,32.70523
1087,1087,2018012635,ADRIAN CALDERON ,SOLE,TRANSPORTATION,-117.04458999999999,32.6867
1088,1088,1979048356,ADRIAN DAY INTERIORS,SOLE,SCIENCE,-117.18568400000001,32.745979999999996
1089,1089,1999009881,ADRIAN F NAGUIT DMD INC,CORP,offices of dentists,-117.11477,32.9602
1091,1091,2016022517,ADRIAN PINA HERNANDEZ,SOLE,consulting services,-117.05743000000001,32.559513
1092,1092,2015022690,ADRIANA FINE JEWELRY,SCORP,electronic shopping & mail-order houses,-117.169624,32.731194
1093,1093,2017015660,ADRIANA G SKIN CARE,SOLE,"hair, nail & skin care services",-117.04973600000001,32.812059999999995
1094,1094,2007004616,ADRIANA SKIN CARE,SOLE,"hair, nail & skin care services",-117.16192,32.731373
1095,1095,2006004291,ADRIANA'S DAY CARE,SOLE,child day care services,-117.09091000000001,32.571135999999996
1096,1096,2007002772,ADRIANA'S HOUSECLEANING SERVICES,SOLE,services to buildings & dwellings,-116.9748,32.869904
1097,1097,2019007419,ADRIANO CAPISTRANO,SOLE,caterers,-117.032555,32.70235
1098,1098,2015037264,ADRIANS CAFE,SOLE,limited-service eating places,-117.1375,32.82079
1099,1099,2017002243,ADRIENNE GROSSMAN,SOLE,ART AND PHOTOGRAPHY,-117.19888999999999,32.793822999999996
1100,1100,1978042030,ADRIENNE MCFADD PHD,SOLE,HEALTH SERVICES,-117.14412,32.822567
1101,1101,2004016641,ADRIENNE MOCH WRITING & EDITING,SOLE,business support services,-117.15638,32.770885
1102,1102,2016008040,ADRIENNE NIMS,SOLE,ART AND PHOTOGRAPHY,-117.30476000000002,33.06794
1104,1104,2012024940,ADT SECURITY SERVICES,LLC,"security systems services, (except locksmiths",-117.122475,32.81234
1105,1105,2017014848,ADTHEOS,SOLE,advertising & related services,-117.2009,32.9019
1106,1106,1991008594,ADULIS CAB CO/ABC CAB CO,SOLE,TRANSPORTATION,-117.13887,32.807266
1108,1108,2016002918,ADULT EMPORIUM #3,CORP,BOOK,-117.13016499999999,32.751995
1109,1109,2009023429,ADVANCE ALARM & MONITORING,SOLE,all other personal services,-117.00657,32.7987
1110,1110,2014025724,ADVANCE AMERICA #1000,LLC,INSURANCE,-117.12714,32.755295000000004
1111,1111,1999002082,ADVANCE AMERICA #1000 CASH ADVANCE CENTERS,LLC,SCIENCE,-117.12714,32.755295000000004
1112,1112,2019006487,ADVANCE AUTO BODY & PAINT SD,SOLE,AUTOMOTIVE,-117.11803400000001,32.75018
1113,1113,1989014492,ADVANCE BLUEPRINT & DIGITAL COPY INC,CORP,SCIENCE,-117.18982,32.745036999999996
1114,1114,2004013397,ADVANCE PROPERTY SERVICES ,SOLE,other services to buildings & dwellings,-117.0733,32.60626
1115,1115,1980058499,ADVANCE TICKETS/FIRST CLASS TRAVEL,CORP,TRAVEL,-117.20096000000001,32.812744
1116,1116,2002001132,ADVANCE TOWING,SOLE,AUTOMOTIVE,-117.063576,32.713165000000004
1117,1117,2019000176,ADVANCE TRANSPORTATION,LLC,TRANSPORTATION,-117.0532,32.689327
1118,1118,2018021225,ADVANCE UP TRUCKING INC,CORP,TRANSPORTATION,-117.09662,33.004574
1120,1120,2008040833,ADVANCED A/C & HEATING CONTRACTOR COMPANY,SOLE,CONSTRUCTION,-117.10748999999998,32.684048
1121,1121,2001008772,ADVANCED ACOUSTIC CONTRACTORS ,CORP,"building, developing & general contracting",-117.143845,32.89715
1122,1122,2018007191,ADVANCED AGE CONSULTING,SOLE,PROPERTY SERVICES,-117.16498600000001,32.91662
1123,1123,2006001917,ADVANCED AIRCRAFT SERVICE,SCORP,REPAIR SERVICES,-117.14188999999999,32.81046
1124,1124,2011017267,ADVANCED AUTO DEALERS LLC,LLC,AUTOMOTIVE,-117.207466,32.827686
1125,1125,2003024062,ADVANCED AUTOMOTIVE TECH,SOLE,all other personal services,-117.14943000000001,32.70845
1126,1126,2009033904,ADVANCED BIOMATRIX INC,CORP,SCIENCE,-117.16273500000001,32.983334
1127,1127,2018015202,ADVANCED BUILDING AND CONSTRUCTION INC,CORP,CONSTRUCTION,-117.31341599999999,33.245284999999996
1128,1128,2001009527,ADVANCED COHERENT TECHNOLOGIES LLC,LLC,COMPUTERS,-117.242195,32.727184
1129,1129,2015039522,ADVANCED CONSTRUCTION,LLC,CONSTRUCTION,-117.17125,32.817093
1130,1130,2017004899,ADVANCED CONSTRUCTION LLC,LLC,CONSTRUCTION,-117.17125,32.817093
1131,1131,2018004856,ADVANCED CONSTRUCTION SOUTHWEST OF CALIFORNIA INC,CORP,"building, developing & general contracting",-117.86243999999999,33.811954
1132,1132,2005002002,ADVANCED CONSTRUCTION TECHNOLOGIES,CORP,CONSTRUCTION,-117.74144,33.642097
1133,1133,2007028431,ADVANCED CUSTOM PAINTING,SOLE,CONSTRUCTION,-117.18943,32.829628
1134,1134,1974012549,ADVANCED DIESEL INJECTION INC,CORP,AUTOMOTIVE,-117.1265,32.692837
1135,1135,2016003183,ADVANCED DME SERVICES INC,CORP,HEALTH SERVICES,-117.12438999999999,32.820995
1136,1136,2017007148,ADVANCED ELECTROLYSIS,SOLE,other personal care services,-117.14889,32.748416999999996
1137,1137,2005003953,ADVANCED ENVIRONMENTAL GROUP INC,CORP,environmental consulting services,-117.62708,33.472996
1138,1138,2008020520,ADVANCED EXTERIORS INC,CORP,CONSTRUCTION,-117.02145,32.767406
1139,1139,2008016932,ADVANCED EYE & LASER CENTER OF CALIFORNIA INC,SCORP,HEALTH SERVICES,-117.09046000000001,32.74953
1140,1140,1992010711,ADVANCED FERTILITY INSTITUTE,CORP,offices of physicians,-117.06221000000001,32.777195
1141,1141,2019000987,ADVANCED FLOORING AND REMODELING,LLC,services to buildings & dwellings,-117.07122,32.7453
1142,1142,1995006566,ADVANCED FRAMING CONCEPTS,SOLE,RETAILERS,-117.15015,32.89305
1143,1143,2018003886,ADVANCED HEATING AND COOLING,SOLE,CONSTRUCTION,-117.10836,32.5775
1144,1144,2017006091,ADVANCED IMAGING STRATEGIES INC,CORP,RETAILERS,-117.155525,32.882393
